{
  "postLocationList":[
{"名前":"浜松町","lat":35.655114","long":139.757036},
{"名前":"新橋","lat":35.666144","long":139.757961},
{"名前":"新橋","lat":35.66620","long":139.758482},
{"名前":"新橋","lat":35.66616","long":139.758108},
{"名前":"浜松町","lat":35.655132","long":139.756914},
{"名前":"銀座東七丁目","lat":35.667185","long":139.763948},
{"名前":"銀座東七丁目","lat":35.667074","long":139.76412},
{"名前":"築地本願寺前","lat":35.667607","long":139.772101},
{"名前":"築地本願寺前","lat":35.66768","long":139.77202},
{"名前":"築地六丁目","lat":35.664531","long":139.772548},
{"名前":"勝どき駅前","lat":35.659396","long":139.777688},
{"名前":"有明JCT","lat":35.627279","long":139.777203},
{"名前":"芝四丁目","lat":35.649129","long":139.753201},
{"名前":"芝四丁目","lat":35.649172","long":139.753007},
{"名前":"芝四丁目","lat":35.649045","long":139.753142},
{"名前":"芝四丁目","lat":35.649107","long":139.752945},
{"名前":"芝公園入口","lat":35.653365","long":139.752954},
{"名前":"札の辻","lat":35.645227","long":139.744178},
{"名前":"芝浦４丁目","lat":35.639405","long":139.747291},
{"名前":"高輪大木戸跡","lat":35.640175","long":139.740926},
{"名前":"品川駅前","lat":35.629046","long":139.737597},
{"名前":"品川駅前","lat":35.628689","long":139.737605},
{"名前":"高輪大木戸跡","lat":35.64022","long":139.740788},
{"名前":"品川駅前","lat":35.629012","long":139.737454},
{"名前":"品川駅前","lat":35.628725","long":139.737464},
{"名前":"八ツ山橋","lat":35.624952","long":139.738106},
{"名前":"新八ツ山橋","lat":35.623904","long":139.737935},
{"名前":"芝公園出口","lat":35.653045","long":139.749578},
{"名前":"大井","lat":35.613525","long":139.757973},
{"名前":"大井","lat":35.612974","long":139.757587},
{"名前":"東雲","lat":35.641287","long":139.802622},
{"名前":"東雲","lat":35.640639","long":139.802698},
{"名前":"東雲","lat":35.640743","long":139.803614},
{"名前":"辰巳","lat":35.644685","long":139.812796},
{"名前":"辰巳","lat":35.643859","long":139.812671},
{"名前":"新木場","lat":35.646163","long":139.827363},
{"名前":"辰巳","lat":35.645523","long":139.810743},
{"名前":"新木場","lat":35.64594","long":139.826782},
{"名前":"清新町","lat":35.669289","long":139.849629},
{"名前":"空港中央","lat":35.558586","long":139.77966},
{"名前":"空港中央","lat":35.550323","long":139.786018},
{"名前":"東海JCT","lat":35.585777","long":139.755355},
{"名前":"東海JCT","lat":35.58577","long":139.75519},
{"名前":"湾岸環八","lat":35.537486","long":139.794847},
{"名前":"湾岸環八","lat":35.537444","long":139.794679},
{"名前":"川崎浮島JCT","lat":35.512138","long":139.785894},
{"名前":"川崎浮島JCT","lat":35.512034","long":139.785993},
{"名前":"浮島","lat":35.518539","long":139.791513},
{"名前":"浮島","lat":35.516036","long":139.789249},
{"名前":"浮島","lat":35.514866","long":139.787628},
{"名前":"空港西出入口","lat":35.558983","long":139.754285},
{"名前":"空港西出入口","lat":35.55994","long":139.754445},
{"名前":"羽田出入口","lat":35.554349","long":139.746707},
{"名前":"羽田出入口","lat":35.554277","long":139.746799},
{"名前":"羽田出入口","lat":35.549061","long":139.744396},
{"名前":"羽田出入口","lat":35.549104","long":139.744247},
{"名前":"飯田橋","lat":35.701869","long":139.74538},
{"名前":"六本木","lat":35.662688","long":139.733192},
{"名前":"恵比寿","lat":35.646295","long":139.714385},
{"名前":"新橋","lat":35.667569","long":139.758942},
{"名前":"目黒区","lat":35.62125","long":139.688014},
{"名前":"五反田","lat":35.628377","long":139.721853},
{"名前":"田町","lat":35.645545","long":139.748536},
{"名前":"日本橋","lat":35.681656","long":139.771811},
{"名前":"中瀬","lat":35.653013","long":140.045025},
{"名前":"行幸橋","lat":35.645064","long":139.452044},
{"名前":"永山橋","lat":35.634787","long":139.446162},
{"名前":"乞田新大橋","lat":35.63299","long":139.442551},
{"名前":"貝取","lat":35.620255","long":139.442618},
{"名前":"南豊ヶ丘フィールド前","lat":35.609889","long":139.432797},
{"名前":"小野路配水場前","lat":35.609125","long":139.429514},
{"名前":"多摩鶴牧六丁目","lat":35.612459","long":139.415699},
{"名前":"千葉北IC","lat":35.669965","long":140.115795},
{"名前":"佐倉IC","lat":35.687814","long":140.241425},
{"名前":"大黒JCT","lat":35.465743","long":139.685233},
{"名前":"大黒JCT","lat":35.465965","long":139.685098},
{"名前":"新宿七丁目","lat":35.697903","long":139.707438},
{"名前":"亀有","lat":35.766522","long":139.847598},
{"名前":"栢山","lat":35.310935","long":139.142514},
{"名前":"国府津","lat":35.281209","long":139.214225},
{"名前":"新子安","lat":35.486875","long":139.654163},
{"名前":"綾瀬","lat":35.762138","long":139.825399},
{"名前":"日暮里","lat":35.728078","long":139.771259},
{"名前":"京成大和田","lat":35.712033","long":140.108013},
{"名前":"習志野TB","lat":35.661631","long":140.024987},
{"名前":"昭和記念公園駐車場前","lat":35.704513","long":139.40712},
{"名前":"昭和記念公園駐車場前","lat":35.704507","long":139.406785},
{"名前":"昭和記念公園立川口前","lat":35.701672","long":139.406171},
{"名前":"富士見町六丁目","lat":35.692305","long":139.392821},
{"名前":"立川柴崎町四丁目","lat":35.691718","long":139.410131},
{"名前":"立日橋北","lat":35.687513","long":139.408346},
{"名前":"杏林大学病院北","lat":35.681128","long":139.567994},
{"名前":"航空宇宙技術研究所","lat":35.681095","long":139.557851},
{"名前":"新川交番前","lat":35.681124","long":139.57015},
{"名前":"西府駅入口","lat":35.672242","long":139.459073},
{"名前":"日野橋","lat":35.686725","long":139.414889},
{"名前":"錦町六丁目","lat":35.684659","long":139.418376},
{"名前":"青柳福祉センター前","lat":35.683443","long":139.423614},
{"名前":"青柳","lat":35.683185","long":139.424816},
{"名前":"国立第六小学校入口","lat":35.682875","long":139.426346},
{"名前":"西府橋","lat":35.676353","long":139.452373},
{"名前":"立日橋南","lat":35.681452","long":139.405611},
{"名前":"成子坂下","lat":35.695859","long":139.688428},
{"名前":"江の島","lat":35.300288","long":139.481157},
{"名前":"府中駅北口","lat":35.673255","long":139.480474},
{"名前":"府中警察署前","lat":35.673268","long":139.481849},
{"名前":"府中警察署東","lat":35.672987","long":139.483142},
{"名前":"三鷹西部図書館入口","lat":35.681335","long":139.535429},
{"名前":"大久保","lat":35.700791","long":139.697318},
{"名前":"東中野","lat":35.706238","long":139.684877},
{"名前":"多摩川原橋","lat":35.644889","long":139.526792},
{"名前":"富士見町高速下","lat":35.663157","long":139.542421},
{"名前":"渋谷橋","lat":35.648921","long":139.711267},
{"名前":"天現寺橋","lat":35.647717","long":139.722805},
{"名前":"津之守坂入口","lat":35.687932","long":139.723278},
{"名前":"四谷一丁目","lat":35.686546","long":139.727583},
{"名前":"四谷見付","lat":35.685917","long":139.729586},
{"名前":"日新町小学校南","lat":35.666658","long":139.444578},
{"名前":"日比谷","lat":35.675123","long":139.759537},
{"名前":"祝田橋","lat":35.676801","long":139.755875},
{"名前":"桜田門","lat":35.677808","long":139.753454},
{"名前":"習志野TB","lat":35.661317","long":140.024804},
{"名前":"若松","lat":35.681081","long":139.998934},
{"名前":"川口東","lat":35.852151","long":139.749514},
{"名前":"川口JCT","lat":35.853165","long":139.738887},
{"名前":"砧二丁目","lat":35.645456","long":139.61812},
{"名前":"登戸4丁目","lat":35.617539","long":140.099266},
{"名前":"登戸4丁目","lat":35.617277","long":140.099193},
{"名前":"野毛公園前","lat":35.606121","long":139.643839},
{"名前":"南小学校前","lat":35.418993","long":139.59980},
{"名前":"旧道入口","lat":35.421741","long":139.601457},
{"名前":"南警察署前","lat":35.422073","long":139.601642},
{"名前":"通町一丁目","lat":35.427681","long":139.606424},
{"名前":"宮元1丁目","lat":35.43204","long":139.612828},
{"名前":"曙町五丁目","lat":35.43779","long":139.623681},
{"名前":"阪東橋","lat":35.43824","long":139.624649},
{"名前":"相生町三丁目","lat":35.447309","long":139.637026},
{"名前":"太田町三丁目","lat":35.447719","long":139.637333},
{"名前":"本町三丁目","lat":35.44912","long":139.638369},
{"名前":"吉原小学校入口","lat":35.39639","long":139.582713},
{"名前":"環2笹下","lat":35.393484","long":139.594886},
{"名前":"環2笹下","lat":35.393329","long":139.594782},
{"名前":"日野立体","lat":35.394273","long":139.58502},
{"名前":"日野立体","lat":35.394092","long":139.584816},
{"名前":"吉原小学校入口","lat":35.396449","long":139.582378},
{"名前":"港南警察署前","lat":35.401428","long":139.591642},
{"名前":"桜道入口","lat":35.400889","long":139.590387},
{"名前":"吉原","lat":35.398014","long":139.587366},
{"名前":"新吉原橋","lat":35.395229","long":139.585983},
{"名前":"日野公園墓地入口","lat":35.392801","long":139.583523},
{"名前":"茅場町一丁目","lat":35.680005","long":139.780115},
{"名前":"呉服橋","lat":35.683675","long":139.770927},
{"名前":"御徒町","lat":35.706953","long":139.77463},
{"名前":"上野","lat":35.713375","long":139.776655},
{"名前":"鶯谷","lat":35.720357","long":139.779044},
{"名前":"日暮里","lat":35.72813","long":139.770464},
{"名前":"西日暮里","lat":35.732297","long":139.766588},
{"名前":"田端","lat":35.73737","long":139.761715},
{"名前":"駒込","lat":35.736584","long":139.747241},
{"名前":"巣鴨","lat":35.733411","long":139.739427},
{"名前":"大塚","lat":35.73174","long":139.728343},
{"名前":"新川二丁目","lat":35.675018","long":139.781548},
{"名前":"葭川公園前","lat":35.60887","long":140.120484},
{"名前":"三河島","lat":35.733341","long":139.777412},
{"名前":"木更津JCT","lat":35.37204","long":139.973983},
{"名前":"蘇我IC","lat":35.559811","long":140.138868},
{"名前":"大崎","lat":35.619375","long":139.728474},
{"名前":"大山","lat":35.748632","long":139.702452},
{"名前":"北池袋","lat":35.740971","long":139.716866},
{"名前":"池袋","lat":35.730327","long":139.710757},
{"名前":"渋谷","lat":35.657974","long":139.701693},
{"名前":"河口湖","lat":35.498048","long":138.768994},
{"名前":"富士急ハイランド","lat":35.489474","long":138.781901},
{"名前":"富士山","lat":35.483548","long":138.795821},
{"名前":"月江寺","lat":35.493201","long":138.79800},
{"名前":"下吉田","lat":35.497934","long":138.803618},
{"名前":"葭池温泉前","lat":35.502039","long":138.81203},
{"名前":"寿","lat":35.508267","long":138.825329},
{"名前":"三つ峠","lat":35.524105","long":138.845291},
{"名前":"東桂","lat":35.536477","long":138.871034},
{"名前":"十日市場","lat":35.538884","long":138.887592},
{"名前":"都留文科大学前","lat":35.54270","long":138.896737},
{"名前":"谷村町","lat":35.550614","long":138.904573},
{"名前":"都留市","lat":35.556997","long":138.907564},
{"名前":"赤坂","lat":35.56622","long":138.916136},
{"名前":"禾生","lat":35.57509","long":138.929053},
{"名前":"田野倉","lat":35.593204","long":138.931217},
{"名前":"上大月","lat":35.609561","long":138.938012},
{"名前":"大手町","lat":35.685367","long":139.763082},
{"名前":"天上山","lat":35.503323","long":138.780492},
{"名前":"平川門","lat":35.690292","long":139.758824},
{"名前":"竹橋","lat":35.690653","long":139.756419},
{"名前":"一ツ橋河岸","lat":35.691604","long":139.758937},
{"名前":"竹橋","lat":35.690754","long":139.756408},
{"名前":"平川門","lat":35.690436","long":139.758842},
{"名前":"新河岸","lat":35.890984","long":139.497263},
{"名前":"上福岡","lat":35.873928","long":139.511869},
{"名前":"ふじみ野","lat":35.860864","long":139.523107},
{"名前":"鶴瀬","lat":35.845783","long":139.53944},
{"名前":"みずほ台","lat":35.838289","long":139.550896},
{"名前":"柳瀬川","lat":35.830806","long":139.562171},
{"名前":"志木","lat":35.822356","long":139.57526},
{"名前":"朝霞台","lat":35.814758","long":139.586952},
{"名前":"朝霞","lat":35.797119","long":139.600193},
{"名前":"下赤塚","lat":35.770601","long":139.644556},
{"名前":"上板橋","lat":35.763596","long":139.676569},
{"名前":"ときわ台","lat":35.75895","long":139.688555},
{"名前":"中板橋","lat":35.756429","long":139.694164},
{"名前":"中目黒","lat":35.644139","long":139.698831},
{"名前":"祐天寺","lat":35.637574","long":139.691042},
{"名前":"自由が丘","lat":35.607566","long":139.668826},
{"名前":"田園調布","lat":35.596899","long":139.667248},
{"名前":"梁川","lat":35.606018","long":139.037682},
{"名前":"立川","lat":35.697776","long":139.413555},
{"名前":"千葉市文化センター","lat":35.609927","long":140.121388},
{"名前":"さいたま市","lat":35.86164","long":139.645795},
{"名前":"大宮区","lat":35.90584","long":139.610416},
{"名前":"鉢山町交番前","lat":35.652897","long":139.698058},
{"名前":"都立一商前","lat":35.650467","long":139.699504},
{"名前":"庚申塚","lat":35.73974","long":139.729788},
{"名前":"宮ノ前","lat":35.750101","long":139.764978},
{"名前":"町屋二丁目","lat":35.743857","long":139.776584},
{"名前":"町屋駅前","lat":35.742757","long":139.780997},
{"名前":"荒川区役所前","lat":35.734932","long":139.786425},
{"名前":"蕨","lat":35.828123","long":139.690379},
{"名前":"北浦和","lat":35.872132","long":139.646077},
{"名前":"与野","lat":35.884342","long":139.639001},
{"名前":"さいたま新都心","lat":35.893637","long":139.633948},
{"名前":"中央３丁目","lat":35.607558","long":140.120841},
{"名前":"十条","lat":35.760009","long":139.72228},
{"名前":"清河寺","lat":35.931898","long":139.583146},
{"名前":"稲毛駅東側","lat":35.638331","long":140.093455},
{"名前":"穴川橋下","lat":35.637756","long":140.110191},
{"名前":"スポーツセンター","lat":35.647661","long":140.117919},
{"名前":"スポーツセンター","lat":35.647684","long":140.117821},
{"名前":"飯能市","lat":35.85569","long":139.327643},
{"名前":"秩父市","lat":35.99145","long":139.085761},
{"名前":"上野町","lat":35.995156","long":139.08762},
{"名前":"松ヶ丘IC","lat":35.598037","long":140.14894},
{"名前":"千石一丁目","lat":35.72875","long":139.743905},
{"名前":"下市場","lat":35.715812","long":140.11673},
{"名前":"下市場","lat":35.715857","long":140.116995},
{"名前":"麹町四丁目","lat":35.683907","long":139.738144},
{"名前":"紀尾井町","lat":35.682978","long":139.738208},
{"名前":"笹井","lat":35.845937","long":139.365511},
{"名前":"松波","lat":35.621681","long":140.104951},
{"名前":"広小路交差点","lat":35.61063","long":140.124705},
{"名前":"勤労福祉会館前","lat":35.662369","long":139.699281},
{"名前":"東京都写真美術館","lat":35.641545","long":139.713284},
{"名前":"住庄ほてる","lat":35.685557","long":139.779223},
{"名前":"分梅駐在所","lat":35.666449","long":139.464763},
{"名前":"門前仲町","lat":35.672295","long":139.795135},
{"名前":"岩槻","lat":35.950171","long":139.693031},
{"名前":"馬込沢","lat":35.741572","long":139.992226},
{"名前":"逆井","lat":35.823228","long":139.983893},
{"名前":"塚田","lat":35.721677","long":139.982512},
{"名前":"東所沢","lat":35.794628","long":139.513784},
{"名前":"すずらん通り入口","lat":35.698434","long":139.638494},
{"名前":"平和台","lat":35.850876","long":139.901081},
{"名前":"お茶の水","lat":35.700643","long":139.763811},
{"名前":"万世橋","lat":35.697632","long":139.771254},
{"名前":"新常盤橋","lat":35.687547","long":139.770004},
{"名前":"祝田橋","lat":35.676754","long":139.755993},
{"名前":"船橋","lat":35.701536","long":139.985216},
{"名前":"神谷町","lat":35.663177","long":139.745325},
{"名前":"三田二丁目","lat":35.647999","long":139.744516},
{"名前":"神谷町","lat":35.663245","long":139.74524},
{"名前":"恵比寿駅東口","lat":35.646208","long":139.712251},
{"名前":"恵比寿一丁目","lat":35.648264","long":139.710057},
{"名前":"恵比寿南","lat":35.646197","long":139.707496},
{"名前":"白金一丁目","lat":35.642926","long":139.734234},
{"名前":"六本木","lat":35.663275","long":139.732585},
{"名前":"六本木","lat":35.663369","long":139.732324},
{"名前":"白金一丁目","lat":35.642938","long":139.734068},
{"名前":"中目黒立体交差","lat":35.642844","long":139.700775},
{"名前":"大野台六丁目","lat":35.55393","long":139.414529},
{"名前":"吉野","lat":35.614601","long":139.171214},
{"名前":"川尻","lat":35.594255","long":139.30297},
{"名前":"城山交番前","lat":35.596084","long":139.305092},
{"名前":"老人ホーム入口","lat":35.554609","long":139.413389},
{"名前":"鵜野森","lat":35.54261","long":139.430095},
{"名前":"赤坂郵便局前","lat":35.673334","long":139.725634},
{"名前":"高戸橋","lat":35.71429","long":139.711366},
{"名前":"左門町","lat":35.68416","long":139.719933},
{"名前":"四谷三丁目","lat":35.687868","long":139.720287},
{"名前":"四面道","lat":35.708026","long":139.615199},
{"名前":"荻窪小学校北","lat":35.695997","long":139.611733},
{"名前":"宮前四丁目","lat":35.691296","long":139.609247},
{"名前":"牟礼二丁目","lat":35.687907","long":139.581447},
{"名前":"新川交番前","lat":35.681133","long":139.569983},
{"名前":"杏林大学病院北","lat":35.68120","long":139.568004},
{"名前":"勝どき駅前","lat":35.659313","long":139.777579},
{"名前":"鶴ヶ島JCT","lat":35.939148","long":139.404048},
{"名前":"和光北","lat":35.797761","long":139.616923},
{"名前":"護国寺","lat":35.717636","long":139.727339},
{"名前":"天現寺出口","lat":35.646949","long":139.729507},
{"名前":"戸越銀座","lat":35.615282","long":139.716756},
{"名前":"戸越銀座","lat":35.615309","long":139.716631},
{"名前":"鶴ヶ島IC","lat":35.942989","long":139.401416},
{"名前":"高坂SA","lat":(下り)","lat":35.983195","long":139.380903},
{"名前":"鶴ヶ島JCT","lat":35.930189","long":139.399052},
{"名前":"末広町二丁目西","lat":35.779817","long":139.306708},
{"名前":"武蔵野台北","lat":35.749997","long":139.330485},
{"名前":"神明台二丁目北","lat":35.753636","long":139.329124},
{"名前":"福生駅西","lat":35.741136","long":139.325355},
{"名前":"北野町南","lat":35.64716","long":139.352328},
{"名前":"明神町","lat":35.659481","long":139.345874},
{"名前":"大和田町四丁目","lat":35.662502","long":139.353041},
{"名前":"左入橋","lat":35.684329","long":139.345806},
{"名前":"西大沼4丁目","lat":35.538492","long":139.41190},
{"名前":"神奈川総合産業高入口","lat":35.535567","long":139.43023},
{"名前":"相模大野","lat":35.533792","long":139.436014},
{"名前":"谷口陸橋下","lat":35.534824","long":139.437511},
{"名前":"東松山橋(南)","lat":36.008119","long":139.398766},
{"名前":"八幡","lat":35.96015","long":139.403027},
{"名前":"宮寺（東）","lat":35.806095","long":139.37889},
{"名前":"宮寺（南）","lat":35.798861","long":139.36825},
{"名前":"狭山平","lat":35.784476","long":139.357233},
{"名前":"多摩工校入口","lat":35.71772","long":139.339933},
{"名前":"堂方上","lat":35.705938","long":139.34989},
{"名前":"谷野街道入口","lat":35.677814","long":139.333465},
{"名前":"谷野街道入口南","lat":35.677535","long":139.332944},
{"名前":"八幡町","lat":35.660319","long":139.328759},
{"名前":"八王子市斎場東","lat":35.641629","long":139.31904},
{"名前":"狭間町","lat":35.638878","long":139.287279},
{"名前":"大戸交差点","lat":35.613335","long":139.290086},
{"名前":"相原駅入口","lat":35.604528","long":139.332704},
{"名前":"坂下","lat":35.605826","long":139.338485},
{"名前":"市立相模原保育園入口","lat":35.57737","long":139.364403},
{"名前":"外苑出口","lat":35.679616","long":139.721614},
{"名前":"権田原","lat":35.677143","long":139.720906},
{"名前":"日本青年会館前","lat":35.675524","long":139.715207},
{"名前":"神南郵便局前","lat":35.662217","long":139.700827},
{"名前":"道玄坂二丁目","lat":35.660508","long":139.696902},
{"名前":"道玄坂下","lat":35.659503","long":139.699443},
{"名前":"代官山交番前","lat":35.647474","long":139.701824},
{"名前":"木更津北IC","lat":35.383899","long":139.993723},
{"名前":"米沢","lat":35.398082","long":140.148416},
{"名前":"東林間入口","lat":35.529559","long":139.443967},
{"名前":"東林間入口","lat":35.529644","long":139.444011},
{"名前":"小川原","lat":35.515331","long":139.474131},
{"名前":"町田市辻","lat":35.511154","long":139.476993},
{"名前":"東京IC","lat":35.628357","long":139.618427},
{"名前":"三芳PA","lat":(下り)、スマートIC","lat":35.837341","long":139.504399},
{"名前":"川越IC","lat":35.890995","long":139.461021},
{"名前":"中の橋交差点","lat":35.677448","long":139.614396},
{"名前":"高井戸西交番前","lat":35.681529","long":139.615083},
{"名前":"谷原","lat":35.749148","long":139.61847},
{"名前":"中丸","lat":36.020089","long":139.554353},
{"名前":"宮益坂上","lat":35.660122","long":139.706098},
{"名前":"南平台","lat":35.656108","long":139.697396},
{"名前":"東名川崎IC","lat":35.58994","long":139.56943},
{"名前":"北野消防署前","lat":35.650253","long":139.351739},
{"名前":"中丸","lat":36.020044","long":139.554297},
{"名前":"湾岸習志野IC","lat":35.665012","long":140.018115},
{"名前":"平和台駅前","lat":35.758217","long":139.653212},
{"名前":"方南小学校前","lat":35.67906","long":139.657385},
{"名前":"若松二丁目","lat":35.541191","long":139.431568},
{"名前":"若松二丁目","lat":35.541145","long":139.431496},
{"名前":"元橋本","lat":35.601541","long":139.338918},
{"名前":"元橋本","lat":35.601484","long":139.339059},
{"名前":"香福寺前","lat":35.600935","long":139.340303},
{"名前":"御殿峠南","lat":35.619802","long":139.340915},
{"名前":"御殿峠第二","lat":35.625082","long":139.338483},
{"名前":"子安町","lat":35.646911","long":139.336753},
{"名前":"狭山PA（内廻り）","lat":35.854092","long":139.368448},
{"名前":"青梅IC","lat":35.798184","long":139.324926},
{"名前":"東京サマーランド前","lat":35.715125","long":139.28426},
{"名前":"左入町東","lat":35.683358","long":139.349182},
{"名前":"市営大和田団地","lat":35.667719","long":139.353804},
{"名前":"五貫目入口","lat":35.498351","long":139.474244},
{"名前":"川井浄水場入口","lat":35.50141","long":139.491046},
{"名前":"環2水田","lat":35.407704","long":139.565162},
{"名前":"横須賀","lat":35.27517","long":139.634562},
{"名前":"川井浄水場入口","lat":35.501509","long":139.490603},
{"名前":"市営斎場入口","lat":35.548803","long":139.42256},
{"名前":"市営斎場入口","lat":35.548888","long":139.422635},
{"名前":"古淵二丁目","lat":35.556485","long":139.417533},
{"名前":"根岸西","lat":35.578254","long":139.411038},
{"名前":"馬場","lat":35.58912","long":139.38793},
{"名前":"小山","lat":35.59481","long":139.374636},
{"名前":"久保ケ谷戸","lat":35.602841","long":139.348811},
{"名前":"万町北","lat":35.653998","long":139.33277},
{"名前":"大横町","lat":35.663627","long":139.329521},
{"名前":"川口川橋南","lat":35.668314","long":139.330743},
{"名前":"佐貫","lat":35.686817","long":139.304937},
{"名前":"戸吹町","lat":35.707775","long":139.296209},
{"名前":"かやくぼ","lat":35.745062","long":139.237682},
{"名前":"梅ケ谷峠入口","lat":35.782114","long":139.226607},
{"名前":"日原街道入口","lat":35.807431","long":139.095854},
{"名前":"川井","lat":35.813159","long":139.163038},
{"名前":"青梅市民会館前","lat":35.789907","long":139.255055},
{"名前":"青梅市民会館南","lat":35.78803","long":139.254751},
{"名前":"青梅市役所下","lat":35.786856","long":139.275541},
{"名前":"東青梅三丁目","lat":35.788606","long":139.27801},
{"名前":"西多摩保健所入口","lat":35.788857","long":139.281997},
{"名前":"御嶽神社入口","lat":35.787632","long":139.299003},
{"名前":"左入橋","lat":35.68428","long":139.345932},
{"名前":"八王子駅入口","lat":35.659729","long":139.33948},
{"名前":"北野町南","lat":35.647144","long":139.352455},
{"名前":"打越","lat":35.643271","long":139.353567},
{"名前":"下柚木交番前","lat":35.628487","long":139.385784},
{"名前":"大竹橋北","lat":35.628211","long":139.391696},
{"名前":"大竹橋北","lat":35.628041","long":139.391628},
{"名前":"高戸橋","lat":35.714391","long":139.711421},
{"名前":"浅草橋三丁目","lat":35.701797","long":139.785335},
{"名前":"東向島","lat":35.722407","long":139.818303},
{"名前":"サッカーミュージアム入口","lat":35.70326","long":139.763681},
{"名前":"清水坂下","lat":35.702854","long":139.766639},
{"名前":"神楽坂下","lat":35.700443","long":139.742661},
{"名前":"調布警察署前","lat":35.65305","long":139.561708},
{"名前":"旧甲州街道入口","lat":35.652474","long":139.560201},
{"名前":"芝郵便局前","lat":35.662922","long":139.752443},
{"名前":"練馬北町陸橋西","lat":35.762658","long":139.662173},
{"名前":"一口坂","lat":35.692455","long":139.740916},
{"名前":"築地六丁目","lat":35.664613","long":139.772656},
{"名前":"勝どき駅前","lat":35.659244","long":139.777657},
{"名前":"勝どき橋西","lat":35.663532","long":139.773823},
{"名前":"祝田橋","lat":35.676665","long":139.755802},
{"名前":"三田一丁目","lat":35.651893","long":139.744982},
{"名前":"日比谷","lat":35.675015","long":139.759431},
{"名前":"白旗","lat":35.577674","long":140.140462},
{"名前":"日比谷","lat":35.674991","long":139.759674},
{"名前":"日比谷","lat":35.674896","long":139.759575},
{"名前":"勝どき駅前","lat":35.659321","long":139.777762},
{"名前":"霞が関二丁目","lat":35.672994","long":139.750341},
{"名前":"桜田門","lat":35.677679","long":139.753375},
{"名前":"麹町四丁目","lat":35.683986","long":139.737627},
{"名前":"麹町四丁目","lat":35.68388","long":139.737637},
{"名前":"四谷見付","lat":35.685789","long":139.729549},
{"名前":"内閣府下","lat":35.671876","long":139.744956},
{"名前":"本牧JCT","lat":35.444155","long":139.667579},
{"名前":"八潮橋","lat":35.607003","long":139.747073},
{"名前":"大井町","lat":35.606385","long":139.734946},
{"名前":"目黒","lat":35.500502","long":139.46757},
{"名前":"下鶴間","lat":35.504586","long":139.464335},
{"名前":"武蔵小杉","lat":35.575844","long":139.659526},
{"名前":"菊名","lat":35.510438","long":139.631281},
{"名前":"観音寺前","lat":35.501368","long":139.466857},
{"名前":"中央林間","lat":35.501287","long":139.449815},
{"名前":"目黒","lat":35.500306","long":139.467752},
{"名前":"資源環境局前","lat":35.528085","long":139.499089},
{"名前":"野川団地入口","lat":35.579799","long":139.591617},
{"名前":"荏田","lat":35.561326","long":139.559168},
{"名前":"江田駅東","lat":35.558258","long":139.553072},
{"名前":"江田駅前","lat":35.557791","long":139.551866},
{"名前":"資源環境局前","lat":35.528021","long":139.499124},
{"名前":"宮益坂上","lat":35.660198","long":139.706007},
{"名前":"新町一丁目","lat":35.630386","long":139.653396},
{"名前":"駒沢大学駅前","lat":35.633254","long":139.661068},
{"名前":"外苑橋","lat":35.679721","long":139.713599},
{"名前":"仙寿院","lat":35.675628","long":139.712687},
{"名前":"西麻布","lat":35.659853","long":139.723368},
{"名前":"西麻布","lat":35.659631","long":139.723423},
{"名前":"白金台","lat":35.637012","long":139.724052},
{"名前":"芝五丁目","lat":35.647697","long":139.748866},
{"名前":"芝五丁目","lat":35.647538","long":139.748849},
{"名前":"芝五丁目","lat":35.647636","long":139.748731},
{"名前":"馬込銀座","lat":35.591664","long":139.718311},
{"名前":"大岡山小前","lat":35.615772","long":139.683363},
{"名前":"松見坂","lat":35.655367","long":139.690143},
{"名前":"松ノ木坂陸橋","lat":35.620666","long":139.680531},
{"名前":"清水橋","lat":35.688825","long":139.682163},
{"名前":"呉服橋","lat":35.684171","long":139.774306},
{"名前":"江戸橋ジャンクション","lat":35.684125","long":139.775304},
{"名前":"宮崎町","lat":35.580322","long":140.136359},
{"名前":"野井産婦人科","lat":35.581161","long":140.133938},
{"名前":"柏木産婦人科内科医院","lat":35.57794","long":140.141306},
{"名前":"白旗坂上","lat":35.577878","long":140.139033},
{"名前":"三愛記念そが病院","lat":35.580856","long":140.137714},
{"名前":"蘇我病院","lat":35.580775","long":140.138269},
{"名前":"AU蘇我","lat":35.580878","long":140.133743},
{"名前":"ローソン","lat":35.580769","long":140.133899},
{"名前":"セブン-イレブン","lat":35.580682","long":140.131913},
{"名前":"南町歯科医院","lat":35.576992","long":140.135975},
{"名前":"メンタルクリニック蘇我","lat":35.580405","long":140.134278},
{"名前":"デイリーヤマザキ","lat":35.58177","long":140.133384},
{"名前":"ローソン・スリーエフ","lat":35.581178","long":140.130108},
{"名前":"横浜青葉IC","lat":35.538886","long":139.536322},
{"名前":"馬場先門","lat":35.678606","long":139.760917},
{"名前":"馬場先門","lat":35.678573","long":139.761071},
{"名前":"東京国際フォーラム西","lat":35.678046","long":139.763446},
{"名前":"馬場先門","lat":35.678483","long":139.760886},
{"名前":"馬場先門","lat":35.678449","long":139.761038},
{"名前":"日比谷駅","lat":35.674101","long":139.76107},
{"名前":"松涛二丁目","lat":35.657898","long":139.69099},
{"名前":"神泉駅入口","lat":35.655904","long":139.691845},
{"名前":"西新橋","lat":35.668599","long":139.754907},
{"名前":"西新橋","lat":35.668556","long":139.755063},
{"名前":"虎ノ門","lat":35.670443","long":139.749442},
{"名前":"銀座四丁目","lat":35.671201","long":139.764968},
{"名前":"銀座四丁目","lat":35.671288","long":139.765056},
{"名前":"若葉の湯","lat":35.628899","long":140.130258},
{"名前":"みずほ銀行","lat":35.896003","long":139.632473},
{"名前":"マクドナルド","lat":35.895513","long":139.633486},
{"名前":"波多野歯科","lat":35.894905","long":139.633883},
{"名前":"スターバックス","lat":35.684236","long":139.739047},
{"名前":"三屋通り入口","lat":35.664094","long":139.438024},
{"名前":"池上駅","lat":35.57293","long":139.703628},
{"名前":"競馬場前","lat":35.534258","long":139.707902},
{"名前":"久根崎","lat":35.534084","long":139.714448},
{"名前":"浜松町","lat":35.655091","long":139.757191},
{"名前":"千葉みなと駅","lat":35.607077","long":140.10208},
{"名前":"千葉ポートタワー","lat":35.600232","long":140.098522},
{"名前":"中央郵便局前","lat":35.602612","long":140.101197},
{"名前":"中央郵便局前","lat":35.602699","long":140.101119},
{"名前":"セブン-イレブン","lat":35.60592","long":140.100528},
{"名前":"千葉中央警察署前","lat":35.604464","long":140.103873},
{"名前":"千葉中央警察署前","lat":35.604528","long":140.103814},
{"名前":"タリーズコーヒー","lat":35.604658","long":140.103447},
{"名前":"帝国ホテル東京","lat":35.671901","long":139.758745},
{"名前":"東京宝塚劇場","lat":35.672825","long":139.759204},
{"名前":"日生劇場","lat":35.673259","long":139.758533},
{"名前":"新橋三丁目交番前","lat":35.666456","long":139.75568},
{"名前":"高坂","lat":36.002708","long":139.397761},
{"名前":"若葉","lat":35.949121","long":139.408745},
{"名前":"霞ヶ関","lat":35.92560","long":139.443395},
{"名前":"上野広小路","lat":35.707994","long":139.773033},
{"名前":"ステラタウン","lat":35.932983","long":139.623284},
{"名前":"イトーヨーカドー","lat":35.932623","long":139.621715},
{"名前":"シャトレーゼ","lat":35.944322","long":139.623405},
{"名前":"ドイト東大宮店","lat":35.945106","long":139.640795},
{"名前":"マクドナルド","lat":35.610855","long":140.116422},
{"名前":"江古田駅南口","lat":35.73621","long":139.672814},
{"名前":"川井宿町","lat":35.489809","long":139.516062},
{"名前":"下新城","lat":35.578295","long":139.633357},
{"名前":"西明寺","lat":35.582363","long":139.654809},
{"名前":"丸子橋","lat":35.583193","long":139.664037},
{"名前":"地蔵尊前","lat":35.513833","long":139.557613},
{"名前":"東方公園入口","lat":35.531713","long":139.573512},
{"名前":"東方原","lat":35.532405","long":139.574158},
{"名前":"錦町河岸","lat":35.691672","long":139.76096},
{"名前":"駿河台","lat":35.696099","long":139.764979},
{"名前":"聖橋","lat":35.699205","long":139.765577},
{"名前":"神田橋","lat":35.689965","long":139.763488},
{"名前":"大岡山駅入口","lat":35.599848","long":139.688301},
{"名前":"下高井戸駅入口","lat":35.667471","long":139.641642},
{"名前":"桜上水駅北","lat":35.669089","long":139.63301},
{"名前":"鎌倉街道入口","lat":35.670223","long":139.625617},
{"名前":"高井戸","lat":35.673502","long":139.621092},
{"名前":"三鷹料金所","lat":35.672109","long":139.572641},
{"名前":"国立府中IC","lat":35.669551","long":139.444279},
{"名前":"石川PA","lat":(下り)","lat":35.679113","long":139.374163},
{"名前":"八王子","lat":(第１出口)","lat":35.674649","long":139.358906},
{"名前":"鎌倉大仏","lat":35.316841","long":139.535715},
{"名前":"中央豊海郵便局","lat":35.65350","long":139.769653},
{"名前":"デニーズ","lat":35.661388","long":139.776189},
{"名前":"八丁堀","lat":35.676642","long":139.778162},
{"名前":"マクドナルド","lat":35.738484","long":139.703116},
{"名前":"鉄鋼団地入口","lat":35.640207","long":139.802701},
{"名前":"東雲一丁目","lat":35.645635","long":139.80204},
{"名前":"東京ビッグサイト東","lat":35.634219","long":139.798901},
{"名前":"東京ビッグサイト東","lat":35.634278","long":139.79877},
{"名前":"Tokyo","lat":Port","lat":Ferry","lat":Terminal","lat":35.617644","long":139.796122},
{"名前":"日本科学未来館","lat":35.619614","long":139.77694},
{"名前":"富士見街道入口","lat":35.760514","long":139.702569},
{"名前":"小石川郵便局前","lat":35.713254","long":139.742206},
{"名前":"本郷台中学校入口","lat":35.707376","long":139.759664},
{"名前":"茅場町","lat":35.680761","long":139.778277},
{"名前":"八丁堀二丁目","lat":35.677493","long":139.776181},
{"名前":"みずほ銀行","lat":35.680462","long":139.769262},
{"名前":"ソフトバンクショップ","lat":35.677218","long":139.777342},
{"名前":"ヤオコー","lat":35.560961","long":140.161279},
{"名前":"ジョリーパスタ","lat":35.61759","long":140.099578},
{"名前":"恵比寿","lat":35.646972","long":139.70867},
{"名前":"セブン-イレブン","lat":35.540821","long":140.194247},
{"名前":"ヤオコー","lat":35.549491","long":140.174608},
{"名前":"高坂SA","lat":(上り)","lat":35.989199","long":139.384096},
{"名前":"あきる野IC","lat":35.72077","long":139.284248},
{"名前":"八王子JCT","lat":35.64499","long":139.252554},
{"名前":"八王子ＩＣ","lat":35.677107","long":139.343435},
{"名前":"新代田駅","lat":35.662533","long":139.660259},
{"名前":"大原","lat":35.672429","long":139.660598},
{"名前":"七里ヶ浜","lat":35.30626","long":139.510124},
{"名前":"由比ヶ浜","lat":35.31282","long":139.54141},
{"名前":"江ノ島","lat":35.311045","long":139.487548},
{"名前":"腰越","lat":35.308355","long":139.493191},
{"名前":"極楽寺","lat":35.309364","long":139.528794},
{"名前":"藤沢","lat":35.337192","long":139.487197},
{"名前":"石上","lat":35.332766","long":139.485649},
{"名前":"稲村ヶ崎","lat":35.304261","long":139.521945},
{"名前":"長谷","lat":35.311236","long":139.536049},
{"名前":"和田塚","lat":35.313745","long":139.545486},
{"名前":"鎌倉高校前","lat":35.306689","long":139.500713},
{"名前":"柳小路","lat":35.327526","long":139.485203},
{"名前":"鵠沼","lat":35.321133","long":139.48255},
{"名前":"湘南海岸公園","lat":35.315045","long":139.483507},
{"名前":"鎌倉","lat":35.318296","long":139.550156},
{"名前":"西鎌倉","lat":35.319386","long":139.504236},
{"名前":"片瀬山","lat":35.317284","long":139.496235},
{"名前":"目白山下","lat":35.313735","long":139.491054},
{"名前":"富士見町","lat":35.34548","long":139.529335},
{"名前":"湘南深沢","lat":35.332775","long":139.518714},
{"名前":"湘南町屋","lat":35.337908","long":139.522718},
{"名前":"湘南江の島","lat":35.311917","long":139.487901},
{"名前":"横須賀","lat":35.284224","long":139.654724},
{"名前":"横須賀","lat":35.284006","long":139.655638},
{"名前":"東逗子","lat":35.298841","long":139.601407},
{"名前":"田浦","lat":35.292854","long":139.636953},
{"名前":"北鎌倉","lat":35.337586","long":139.544963},
{"名前":"鎌倉","lat":35.31918","long":139.55050},
{"名前":"雑色","lat":35.550055","long":139.715197},
{"名前":"泉岳寺","lat":35.638793","long":139.740041},
{"名前":"子安","lat":35.484641","long":139.645143},
{"名前":"神奈川新町","lat":35.481473","long":139.640071},
{"名前":"仲木戸","lat":35.477268","long":139.634551},
{"名前":"横浜","lat":35.466249","long":139.623222},
{"名前":"神奈川","lat":35.471025","long":139.627135},
{"名前":"羽田空港国内線ターミナル","lat":35.549783","long":139.785976},
{"名前":"大鳥居","lat":35.552561","long":139.739393},
{"名前":"穴守稲荷","lat":35.550297","long":139.746746},
{"名前":"天空橋","lat":35.548137","long":139.754663},
{"名前":"新逗子","lat":35.294181","long":139.580324},
{"名前":"神武寺","lat":35.306409","long":139.593086},
{"名前":"六浦","lat":35.32260","long":139.611269},
{"名前":"川鉄病院","lat":35.583834","long":140.131391},
{"名前":"ミニストップ","lat":35.593241","long":140.126234},
{"名前":"餃子の王将","lat":35.591065","long":140.122377},
{"名前":"デイリーヤマザキ","lat":35.590848","long":140.122325},
{"名前":"ネッツトヨタ","lat":35.586414","long":140.124596},
{"名前":"西神田","lat":35.695865","long":139.752666},
{"名前":"東池袋","lat":35.727406","long":139.717078},
{"名前":"流山IC","lat":35.879603","long":139.902858},
{"名前":"三郷JCT","lat":35.839826","long":139.864569},
{"名前":"町田市辻","lat":35.511024","long":139.477175},
{"名前":"穴部","lat":35.280106","long":139.148471},
{"名前":"和田河原","lat":35.315851","long":139.118089},
{"名前":"富士フイルム前","lat":35.317654","long":139.108894},
{"名前":"五百羅漢","lat":35.275244","long":139.155817},
{"名前":"飯田岡","lat":35.288133","long":139.13905},
{"名前":"相模沼田","lat":35.292111","long":139.133992},
{"名前":"塚原","lat":35.301725","long":139.126331},
{"名前":"大雄山","lat":35.319185","long":139.103169},
{"名前":"岩原","lat":35.299127","long":139.128489},
{"名前":"東山北","lat":35.357475","long":139.107896},
{"名前":"松田","lat":35.346296","long":139.138579},
{"名前":"上大井","lat":35.322213","long":139.163138},
{"名前":"相模金子","lat":35.333911","long":139.15047},
{"名前":"下曽我","lat":35.303779","long":139.183126},
{"名前":"駿河小山","lat":35.358902","long":138.998608},
{"名前":"南御殿場","lat":35.277125","long":138.925556},
{"名前":"谷峨","lat":35.366238","long":139.038441},
{"名前":"国府津","lat":35.281279","long":139.214207},
{"名前":"足柄","lat":35.332989","long":138.981609},
{"名前":"山北","lat":35.360769","long":139.08032},
{"名前":"御殿場","lat":35.299985","long":138.934136},
{"名前":"鶴間","lat":35.48991","long":139.45097},
{"名前":"長後","lat":35.412549","long":139.465433},
{"名前":"相模大野","lat":35.531581","long":139.437376},
{"名前":"南林間","lat":35.495001","long":139.44835},
{"名前":"桜ヶ丘","lat":35.450594","long":139.465757},
{"名前":"片瀬江ノ島","lat":35.308873","long":139.483502},
{"名前":"藤沢本町","lat":35.348029","long":139.476131},
{"名前":"鵠沼海岸","lat":35.32080","long":139.471092},
{"名前":"大和","lat":35.469972","long":139.461366},
{"名前":"東林間","lat":35.520206","long":139.43904},
{"名前":"千石","lat":35.728339","long":139.744253},
{"名前":"三田","lat":35.648123","long":139.748834},
{"名前":"白山","lat":35.721061","long":139.752123},
{"名前":"石川町","lat":35.439243","long":139.642747},
{"名前":"関内","lat":35.444065","long":139.636081},
{"名前":"平間","lat":35.560971","long":139.670912},
{"名前":"矢向","lat":35.539645","long":139.680285},
{"名前":"武蔵新城","lat":35.587114","long":139.629834},
{"名前":"向河原","lat":35.572644","long":139.667213},
{"名前":"武蔵溝ノ口","lat":35.59917","long":139.611002},
{"名前":"武蔵小杉","lat":35.57662","long":139.659574},
{"名前":"鹿島田","lat":35.551989","long":139.674802},
{"名前":"立川","lat":35.697564","long":139.413551},
{"名前":"西国立","lat":35.69328","long":139.424105},
{"名前":"矢川","lat":35.684962","long":139.432177},
{"名前":"稲田堤","lat":35.633554","long":139.535366},
{"名前":"谷保","lat":35.681453","long":139.446602},
{"名前":"登戸","lat":35.62084","long":139.569993},
{"名前":"分倍河原","lat":35.66846","long":139.468999},
{"名前":"府中本町","lat":35.666109","long":139.477101},
{"名前":"川崎新町","lat":35.518148","long":139.699473},
{"名前":"浜川崎","lat":35.510329","long":139.713792},
{"名前":"神田橋ジャンクション","lat":35.688942","long":139.765967},
{"名前":"北の丸","lat":35.690927","long":139.754832},
{"名前":"江戸橋ジャンクション","lat":35.684173","long":139.776473},
{"名前":"江戸橋","lat":35.683989","long":139.774248},
{"名前":"霞ヶ関出口","lat":35.676032","long":139.749253},
{"名前":"東京都","lat":35.682838","long":139.759454},
{"名前":"スリーエフ","lat":35.625465","long":139.745198},
{"名前":"デイリーヤマザキ","lat":35.624422","long":139.739775},
{"名前":"セブン-イレブン","lat":35.630299","long":139.737765},
{"名前":"青山一丁目","lat":35.672818","long":139.723889},
{"名前":"田園調布警察前","lat":35.589122","long":139.677925},
{"名前":"大手町","lat":35.68534","long":139.763233},
{"名前":"霞が関二丁目","lat":35.672931","long":139.750522},
{"名前":"渋谷","lat":35.659544","long":139.702073},
{"名前":"桜新町","lat":35.631719","long":139.645163},
{"名前":"駒沢大学","lat":35.63351","long":139.661771},
{"名前":"池尻大橋","lat":35.650658","long":139.684609},
{"名前":"高津","lat":35.603168","long":139.616865},
{"名前":"用賀","lat":35.626647","long":139.634171},
{"名前":"三軒茶屋","lat":35.643517","long":139.67127},
{"名前":"青葉台","lat":35.542878","long":139.517231},
{"名前":"市が尾","lat":35.551218","long":139.541131},
{"名前":"梶が谷","lat":35.593679","long":139.605567},
{"名前":"あざみ野","lat":35.568647","long":139.553404},
{"名前":"たまプラーザ","lat":35.57754","long":139.558844},
{"名前":"宮崎台","lat":35.587034","long":139.590638},
{"名前":"藤が丘","lat":35.543529","long":139.528034},
{"名前":"田奈","lat":35.536116","long":139.50476},
{"名前":"江田","lat":35.558574","long":139.551454},
{"名前":"鷺沼","lat":35.579474","long":139.572865},
{"名前":"宮前平","lat":35.585011","long":139.582276},
{"名前":"溝の口","lat":35.599925","long":139.610511},
{"名前":"中央林間","lat":35.507773","long":139.444446},
{"名前":"つきみ野","lat":35.510389","long":139.458271},
{"名前":"旗の台","lat":35.604839","long":139.702709},
{"名前":"尾山台","lat":35.607129","long":139.653424},
{"名前":"大岡山","lat":35.607497","long":139.685822},
{"名前":"自由が丘","lat":35.607571","long":139.669242},
{"名前":"緑が丘","lat":35.606582","long":139.679004},
{"名前":"上野毛","lat":35.612019","long":139.638906},
{"名前":"北千束","lat":35.606267","long":139.693549},
{"名前":"蒲田","lat":35.56170","long":139.714672},
{"名前":"矢口渡","lat":35.562583","long":139.700256},
{"名前":"下丸子","lat":35.571401","long":139.685601},
{"名前":"沼部","lat":35.582777","long":139.673075},
{"名前":"武蔵新田","lat":35.567887","long":139.692475},
{"名前":"多摩川","lat":35.58962","long":139.66886},
{"名前":"武蔵小山","lat":35.620231","long":139.703905},
{"名前":"西小山","lat":35.615499","long":139.698689},
{"名前":"目黒","lat":35.633224","long":139.71562},
{"名前":"不動前","lat":35.625359","long":139.713024},
{"名前":"洗足","lat":35.610159","long":139.694151},
{"名前":"奥沢","lat":35.604037","long":139.672767},
{"名前":"田園調布","lat":35.596904","long":139.667323},
{"名前":"虎ノ門","lat":35.670329","long":139.749388},
{"名前":"虎の門一丁目","lat":35.668873","long":139.748405},
{"名前":"虎ノ門","lat":35.670377","long":139.749263},
{"名前":"虎ノ門","lat":35.670487","long":139.749317},
{"名前":"桜田門","lat":35.67775","long":139.753629},
{"名前":"桜田門","lat":35.67762","long":139.753546},
{"名前":"つきみ野","lat":35.513458","long":139.45797},
{"名前":"東久留米","lat":35.76029","long":139.534085},
{"名前":"神明橋","lat":35.618368","long":139.363361},
{"名前":"由木西小入口","lat":35.615906","long":139.361917},
{"名前":"多摩美大前","lat":35.613393","long":139.350432},
{"名前":"遣水","lat":35.613826","long":139.34261},
{"名前":"下柚木","lat":35.627747","long":139.383682},
{"名前":"内田橋北","lat":35.627535","long":139.394864},
{"名前":"八王子堀之内西","lat":35.628994","long":139.400814},
{"名前":"八王子堀之内","lat":35.629883","long":139.402069},
{"名前":"日新町二丁目","lat":35.671283","long":139.448836},
{"名前":"絹ヶ丘二丁目","lat":35.638866","long":139.359767},
{"名前":"下馬","lat":35.31574","long":139.550056},
{"名前":"哲運寺","lat":35.310667","long":139.552823},
{"名前":"上鶴間高校入口","lat":35.522771","long":139.45053},
{"名前":"上鶴間高校入口","lat":35.522729","long":139.450443},
{"名前":"海蔵寺","lat":35.328858","long":139.545263},
{"名前":"南町田北","lat":35.513554","long":139.46542},
{"名前":"多摩境駅前","lat":35.603025","long":139.366349},
{"名前":"上之根橋","lat":35.628317","long":139.428658},
{"名前":"宝蔵橋","lat":35.649006","long":139.43694},
{"名前":"相原三差路","lat":35.604201","long":139.345009},
{"名前":"相原坂下","lat":35.605986","long":139.343587},
{"名前":"相原","lat":35.605141","long":139.342311},
{"名前":"片倉町","lat":35.642881","long":139.338826},
{"名前":"打越","lat":35.643336","long":139.353267},
{"名前":"片倉高校前","lat":35.630913","long":139.338134},
{"名前":"東京工科大前","lat":35.624221","long":139.339182},
{"名前":"絹ヶ丘団地入口東","lat":35.637411","long":139.36119},
{"名前":"光照寺北","lat":35.635789","long":139.36271},
{"名前":"野猿峠","lat":35.633231","long":139.364513},
{"名前":"八王子","lat":(第２出口)","lat":35.67530","long":139.354103},
{"名前":"大栗川橋南","lat":35.626475","long":139.398468},
{"名前":"堀之内駅入口","lat":35.62459","long":139.399024},
{"名前":"多摩南野","lat":35.608599","long":139.426307},
{"名前":"多摩南野","lat":35.608324","long":139.426307},
{"名前":"多摩山王橋","lat":35.626524","long":139.423839},
{"名前":"堰場","lat":35.637387","long":139.41580},
{"名前":"高幡不動西","lat":35.663193","long":139.40951},
{"名前":"一ノ宮","lat":35.651796","long":139.437486},
{"名前":"乞田","lat":35.634678","long":139.44269},
{"名前":"乞田","lat":35.634586","long":139.442433},
{"名前":"三本松陸橋","lat":35.630057","long":139.42321},
{"名前":"三本松陸橋","lat":35.629983","long":139.422949},
{"名前":"多摩センター駅入口","lat":35.626953","long":139.425034},
{"名前":"多摩中央公園","lat":35.622666","long":139.427343},
{"名前":"松が谷高校入口","lat":35.624886","long":139.416198},
{"名前":"多摩南部地域病院","lat":35.622344","long":139.416526},
{"名前":"八王子みなみ野シティ西","lat":35.629089","long":139.313655},
{"名前":"寺田橋","lat":35.631176","long":139.312456},
{"名前":"由井第三小学校","lat":35.642802","long":139.326337},
{"名前":"長沼町","lat":35.642086","long":139.363783},
{"名前":"平山城址公園駅","lat":35.646317","long":139.381107},
{"名前":"平山五丁目","lat":35.647025","long":139.384281},
{"名前":"日野市役所入口","lat":35.679137","long":139.396837},
{"名前":"日野本町二丁目","lat":35.678756","long":139.398655},
{"名前":"大和田町四丁目","lat":35.662523","long":139.35334},
{"名前":"万町","lat":35.652149","long":139.333393},
{"名前":"聖蹟桜ヶ丘駅前","lat":35.650281","long":139.446533},
{"名前":"聖蹟桜ヶ丘駅東","lat":35.649981","long":139.448393},
{"名前":"中央大学前","lat":35.639129","long":139.40384},
{"名前":"明星大学入口","lat":35.650627","long":139.406927},
{"名前":"中程久保","lat":35.653086","long":139.40883},
{"名前":"新浅川橋南","lat":35.653223","long":139.353839},
{"名前":"新浅川橋南","lat":35.653274","long":139.353759},
{"名前":"日野跨線橋","lat":35.66901","long":139.390176},
{"名前":"神明一丁目","lat":35.668785","long":139.395229},
{"名前":"四谷体育館東","lat":35.66415","long":139.442925},
{"名前":"矢川三丁目","lat":35.682451","long":139.429295},
{"名前":"三屋通り","lat":35.667637","long":139.438491},
{"名前":"三屋通り中","lat":35.66860","long":139.437484},
{"名前":"一ノ宮","lat":35.65173","long":139.437716},
{"名前":"東京薬科大学東","lat":35.637828","long":139.388772},
{"名前":"大栗川橋北","lat":35.628138","long":139.397958},
{"名前":"奥山橋下","lat":35.64520","long":139.385797},
{"名前":"奥山橋下","lat":35.645006","long":139.38572},
{"名前":"程久保六丁目","lat":35.643819","long":139.395038},
{"名前":"南陽台入口","lat":35.63162","long":139.371607},
{"名前":"野猿峠","lat":35.63317","long":139.364524},
{"名前":"中山入口","lat":35.623019","long":139.373159},
{"名前":"山野美容芸術短期大学","lat":35.620941","long":139.342258},
{"名前":"東京薬科大学","lat":35.637762","long":139.38469},
{"名前":"遣水北","lat":35.615762","long":139.341293},
{"名前":"相原坂上","lat":35.609991","long":139.344607},
{"名前":"小山長池トンネル南","lat":35.599217","long":139.38147},
{"名前":"小野路配水場前","lat":35.609359","long":139.429421},
{"名前":"豊ヶ丘小入口","lat":35.622729","long":139.431941},
{"名前":"道の駅入り口","lat":35.686165","long":139.340693},
{"名前":"道の駅入り口","lat":35.686125","long":139.340791},
{"名前":"ひよどり山トンネルトンネル南","lat":35.667794","long":139.341164},
{"名前":"大和田小学校前","lat":35.666218","long":139.353815},
{"名前":"大和田小学校前","lat":35.666223","long":139.353924},
{"名前":"大和田小学校東","lat":35.666281","long":139.35762},
{"名前":"石川入口","lat":35.663358","long":139.356972},
{"名前":"あかはけ橋","lat":35.661262","long":139.358103},
{"名前":"旭が丘小学校","lat":35.659585","long":139.361961},
{"名前":"旭が丘五丁目","lat":35.659408","long":139.36460},
{"名前":"富士町","lat":35.658367","long":139.376107},
{"名前":"豊田三丁目","lat":35.655077","long":139.378841},
{"名前":"平山橋南","lat":35.650444","long":139.38205},
{"名前":"日野二小東","lat":35.661629","long":139.390776},
{"名前":"東豊田陸橋","lat":35.66315","long":139.389218},
{"名前":"神明二丁目","lat":35.668913","long":139.39245},
{"名前":"川崎街道入口","lat":35.678328","long":139.400464},
{"名前":"神明四丁目高速下","lat":35.675109","long":139.401251},
{"名前":"中央大学南","lat":35.633766","long":139.407215},
{"名前":"鷹の台","lat":35.723367","long":139.461164},
{"名前":"恋ヶ窪","lat":35.711286","long":139.464023},
{"名前":"国分寺","lat":35.700266","long":139.480349},
{"名前":"多摩東公園","lat":35.62597","long":139.462664},
{"名前":"多摩東公園","lat":35.62596","long":139.462138},
{"名前":"多摩馬引沢","lat":35.633599","long":139.451631},
{"名前":"諏訪下橋","lat":35.636077","long":139.448343},
{"名前":"若葉台小学校南","lat":35.625183","long":139.46916},
{"名前":"若葉台小学校西","lat":35.625743","long":139.466661},
{"名前":"上谷戸大橋南","lat":35.625527","long":139.479898},
{"名前":"稲城五中入口","lat":35.637832","long":139.491979},
{"名前":"南大沢二丁目","lat":35.61650","long":139.383186},
{"名前":"首都大学東京東","lat":35.616688","long":139.379602},
{"名前":"首都大学東京西","lat":35.615043","long":139.376323},
{"名前":"首都大学東京西","lat":35.614949","long":139.37624},
{"名前":"首都大学東京東","lat":35.616703","long":139.379708},
{"名前":"南大沢駅入口東","lat":35.613824","long":139.381907},
{"名前":"南大沢駅入口西","lat":35.612059","long":139.37840},
{"名前":"内裏橋","lat":35.613422","long":139.37739},
{"名前":"内裏橋","lat":35.613618","long":139.377253},
{"名前":"サレジオ高専西","lat":35.605243","long":139.35664},
{"名前":"板橋南","lat":35.622443","long":139.390986},
{"名前":"峯ケ谷戸橋南","lat":35.625509","long":139.395455},
{"名前":"峯ケ谷戸橋南","lat":35.625656","long":139.395396},
{"名前":"稲城IC","lat":35.655685","long":139.519815},
{"名前":"石川PA","lat":(下り)","lat":35.678385","long":139.372195},
{"名前":"国立府中IC","lat":35.674967","long":139.438178},
{"名前":"府中スマートIC","lat":35.660168","long":139.493283},
{"名前":"高井戸IC","lat":35.680496","long":139.604474},
{"名前":"西新宿JCT","lat":35.680943","long":139.685835},
{"名前":"外苑出口","lat":35.680742","long":139.714043},
{"名前":"代々木出口","lat":35.680277","long":139.69653},
{"名前":"稲城五中入口","lat":35.638126","long":139.491674},
{"名前":"稲城市役所","lat":35.637983","long":139.504704},
{"名前":"小比企町","lat":35.638284","long":139.318509},
{"名前":"法政大学入口","lat":35.610877","long":139.295491},
{"名前":"小松","lat":35.603285","long":139.299988},
{"名前":"元橋本","lat":35.601583","long":139.338804},
{"名前":"遣水枝畑","lat":35.61361","long":139.351607},
{"名前":"柏原橋","lat":35.617118","long":139.362928},
{"名前":"長久保","lat":35.616216","long":139.375446},
{"名前":"大田平橋","lat":35.623825","long":139.375919},
{"名前":"柳沢の池公園北","lat":35.620179","long":139.376692},
{"名前":"小山内裏トンネル北","lat":35.609062","long":139.371669},
{"名前":"小山内裏トンネル北","lat":35.608998","long":139.371788},
{"名前":"大田橋","lat":35.617161","long":139.384487},
{"名前":"東原宿","lat":35.597631","long":139.313246},
{"名前":"新小倉橋東側","lat":35.588803","long":139.304492},
{"名前":"新小倉橋東側","lat":35.588687","long":139.304587},
{"名前":"橋本台一丁目第","long":35.581957","long":139.342779},
{"名前":"葛輪","lat":35.568638","long":139.341989},
{"名前":"サレジオ高専東","lat":35.604249","long":139.359659},
{"名前":"新道橋南","lat":35.627757","long":139.403494},
{"名前":"南峰","lat":35.81420","long":139.325914},
{"名前":"阿須","lat":35.834225","long":139.329867},
{"名前":"笹井","lat":35.845972","long":139.365625},
{"名前":"つきみ野六丁目","lat":35.510732","long":139.452685},
{"名前":"つきみ野三丁目","lat":35.509081","long":139.458299},
{"名前":"辰巳","lat":35.643917","long":139.812844},
{"名前":"羽田ランプ","lat":35.551717","long":139.74568},
{"名前":"糀谷駅前","lat":35.553572","long":139.729862},
{"名前":"大鳥居","lat":35.552289","long":139.740284},
{"名前":"蒲田郵便局前","lat":35.558773","long":139.718322},
{"名前":"白山神社前","lat":35.579003","long":139.682972},
{"名前":"武蔵新田駅前","lat":35.567868","long":139.693091},
{"名前":"野毛公園前","lat":35.60603","long":139.643808},
{"名前":"尾山台","lat":35.603768","long":139.652041},
{"名前":"上野毛一丁目","lat":35.613826","long":139.641218},
{"名前":"白金台","lat":35.636962","long":139.724086},
{"名前":"上大崎","lat":35.634721","long":139.719486},
{"名前":"東京家政学院入口","lat":35.605604","long":139.306331},
{"名前":"橋本変電所前","lat":35.591861","long":139.341004},
{"名前":"橋本変電所前","lat":35.591853","long":139.340881},
{"名前":"金田","lat":35.465254","long":139.368191},
{"名前":"元町","lat":35.447011","long":139.366528},
{"名前":"厚木市立病院前","lat":35.449693","long":139.358418},
{"名前":"金田","lat":35.465024","long":139.368143},
{"名前":"国分","lat":35.463798","long":139.39581},
{"名前":"上今泉","lat":35.467024","long":139.406771},
{"名前":"東原四丁目","lat":35.478812","long":139.427923},
{"名前":"大和橋","lat":35.495292","long":139.465153},
{"名前":"瀬谷入口","lat":35.497261","long":139.46604},
{"名前":"旭町","lat":35.553751","long":139.44280},
{"名前":"小野路","lat":35.594466","long":139.448977},
{"名前":"木曽団地東","lat":35.564873","long":139.444531},
{"名前":"本町田東小入口","lat":35.569907","long":139.442926},
{"名前":"稲荷町","lat":35.711328","long":139.782663},
{"名前":"南豊ヶ丘フィールド前","lat":35.610228","long":139.432624},
{"名前":"多摩落合三丁目","lat":35.618795","long":139.432941},
{"名前":"等々力不動前","lat":35.60517","long":139.647485},
{"名前":"等々力不動前","lat":35.60495","long":139.647552},
{"名前":"多摩川田園調布","lat":35.600686","long":139.664477},
{"名前":"多摩川田園調布","lat":35.600778","long":139.664506},
{"名前":"上小田中","lat":35.580502","long":139.643011},
{"名前":"ろう学校入口","lat":35.58312","long":139.637997},
{"名前":"溝口駅前交番","lat":35.59950","long":139.611941},
{"名前":"東急溝の口駅前","lat":35.599961","long":139.611374},
{"名前":"下作延","lat":35.60214","long":139.60440},
{"名前":"長尾五丁目","lat":35.611842","long":139.581147},
{"名前":"稲田小学校前","lat":35.61190","long":139.580019},
{"名前":"芝間住宅入口","lat":35.636564","long":139.525825},
{"名前":"町田市民病院東","lat":35.557166","long":139.439729},
{"名前":"町田三中西","lat":35.559957","long":139.429635},
{"名前":"金森郵便局前","lat":35.534208","long":139.459259},
{"名前":"あきる野IC","lat":35.716668","long":139.282915},
{"名前":"日の出IC","lat":35.732762","long":139.282725},
{"名前":"左入橋","lat":35.684476","long":139.346089},
{"名前":"左入橋","lat":35.684517","long":139.345947},
{"名前":"多摩ニュータウン入口","lat":35.59964","long":139.362507},
{"名前":"多摩ニュータウン入口","lat":35.599563","long":139.362482},
{"名前":"中央林間駅東側","lat":35.506797","long":139.445363},
{"名前":"山根橋北","lat":35.576386","long":139.408922},
{"名前":"桜美林学園東","lat":35.579597","long":139.407948},
{"名前":"箭幹八幡","lat":35.578348","long":139.40600},
{"名前":"八王子JCT","lat":35.642588","long":139.264201},
{"名前":"八王子西IC","lat":35.67537","long":139.251239},
{"名前":"青梅IC","lat":35.796538","long":139.320074},
{"名前":"狭山日高IC","lat":35.864273","long":139.377992},
{"名前":"圏央鶴ヶ島IC","lat":35.917364","long":139.387159},
{"名前":"江戸橋","lat":35.68413","long":139.774644},
{"名前":"江戸橋北","lat":35.68488","long":139.777006},
{"名前":"妻恋坂","lat":35.703009","long":139.769586},
{"名前":"秋葉原駅南","lat":35.697583","long":139.772528},
{"名前":"淡路町","lat":35.695348","long":139.767489},
{"名前":"神田橋","lat":35.689336","long":139.763813},
{"名前":"神田橋","lat":35.690296","long":139.762603},
{"名前":"クリーンセンター多摩川入口","lat":35.646434","long":139.474973},
{"名前":"大丸","lat":35.648438","long":139.491973},
{"名前":"ファミリーマート","lat":35.954237","long":139.724302},
{"名前":"マクドナルド","lat":35.972258","long":139.73645},
{"名前":"守谷SA","lat":(下り)","lat":35.935921","long":139.966139},
{"名前":"谷和原IC","lat":35.967234","long":139.979517},
{"名前":"北野町","lat":35.648539","long":139.352067},
{"名前":"北野町","lat":35.648557","long":139.352214},
{"名前":"北野公園前","lat":35.648234","long":139.358991},
{"名前":"北野公園前","lat":35.648085","long":139.359068},
{"名前":"北野町","lat":35.64841","long":139.352243},
{"名前":"北野町","lat":35.648392","long":139.352094},
{"名前":"春日橋","lat":35.645742","long":139.360337},
{"名前":"保健所前","lat":35.657565","long":139.341813},
{"名前":"内閣府下","lat":35.672088","long":139.744854},
{"名前":"戸塚警察署","lat":35.390991","long":139.521825},
{"名前":"菖蒲沢境","lat":35.39182","long":139.440993},
{"名前":"円行","lat":35.395008","long":139.454352},
{"名前":"相模ハム","lat":35.390203","long":139.431941},
{"名前":"慶應義塾大学","lat":湘南藤沢キャンパス","lat":35.38791","long":139.427025},
{"名前":"戸田","lat":35.404931","long":139.361501},
{"名前":"大和東","lat":35.475523","long":139.465058},
{"名前":"一ノ関","lat":35.487372","long":139.463819},
{"名前":"山王原","lat":35.493208","long":139.462772},
{"名前":"山王原東","lat":35.493818","long":139.464448},
{"名前":"第二交通機動隊前","lat":35.414356","long":139.362998},
{"名前":"堰場","lat":35.637248","long":139.416035},
{"名前":"柚木事務所前","lat":35.626874","long":139.381343},
{"名前":"堰場東","lat":35.637867","long":139.417997},
{"名前":"中央大学南","lat":35.633655","long":139.407306},
{"名前":"下柚木交番前","lat":35.628348","long":139.385821},
{"名前":"大栗川橋北","lat":35.627949","long":139.397936},
{"名前":"内田橋北","lat":35.627374","long":139.394892},
{"名前":"八王子堀之内","lat":35.629797","long":139.402165},
{"名前":"八王子堀之内西","lat":35.628852","long":139.400895},
{"名前":"大田平橋","lat":35.62376","long":139.375992},
{"名前":"中山入口","lat":35.622954","long":139.373205},
{"名前":"柏原橋","lat":35.617118","long":139.363048},
{"名前":"由木西小入口","lat":35.615829","long":139.361992},
{"名前":"遣水枝畑","lat":35.613536","long":139.351635},
{"名前":"多摩美大前","lat":35.61331","long":139.350406},
{"名前":"遣水","lat":35.613642","long":139.342748},
{"名前":"宝蔵橋","lat":35.648894","long":139.43702},
{"名前":"四谷体育館東","lat":35.664189","long":139.443042},
{"名前":"青果市場東","lat":35.675971","long":139.446843},
{"名前":"日新町二丁目","lat":35.67125","long":139.448957},
{"名前":"日新町小学校南","lat":35.666604","long":139.444659},
{"名前":"多摩動物公園南","lat":35.647518","long":139.40349},
{"名前":"南多摩高校前","lat":35.659569","long":139.342633},
{"名前":"ひよどり山トンネル北","lat":35.682391","long":139.338847},
{"名前":"谷野町南","lat":35.681335","long":139.333963},
{"名前":"宇津木町西","lat":35.681028","long":139.353124},
{"名前":"旭ヶ丘２丁目","lat":35.658896","long":139.372273},
{"名前":"泉塚南","lat":35.667079","long":139.385475},
{"名前":"旭が丘六丁目","lat":35.659149","long":139.36812},
{"名前":"泉塚","lat":35.66835","long":139.385126},
{"名前":"多摩平交番前","lat":35.66244","long":139.379572},
{"名前":"豊田駅前","lat":35.660888","long":139.380562},
{"名前":"日野八小入口","lat":35.663571","long":139.41675},
{"名前":"甲州街道駅入口","lat":35.678934","long":139.408128},
{"名前":"東部会館前","lat":35.668416","long":139.420527},
{"名前":"日野万願寺駅前","lat":35.670417","long":139.42046},
{"名前":"日野万願寺駅前","lat":35.670523","long":139.420416},
{"名前":"甲州街道駅入口","lat":35.678977","long":139.40823},
{"名前":"クリーンセンター入口","lat":35.667856","long":139.420329},
{"名前":"南新井","lat":35.664494","long":139.417884},
{"名前":"日野八小入口","lat":35.663523","long":139.416821},
{"名前":"程久保橋","lat":35.657575","long":139.41297},
{"名前":"堰場","lat":35.637357","long":139.415643},
{"名前":"堰場","lat":35.637204","long":139.415848},
{"名前":"程久保橋","lat":35.657646","long":139.41287},
{"名前":"明星大学入口","lat":35.650732","long":139.406905},
{"名前":"多摩山王橋","lat":35.626439","long":139.423632},
{"名前":"多摩南野","lat":35.608573","long":139.426175},
{"名前":"大栗川橋北","lat":35.627971","long":139.398059},
{"名前":"大栗川橋南","lat":35.626504","long":139.398607},
{"名前":"多摩ニュータウン入口","lat":35.59959","long":139.362619},
{"名前":"南大沢二丁目","lat":35.616398","long":139.383242},
{"名前":"大田橋","lat":35.617066","long":139.384565},
{"名前":"板橋南","lat":35.62241","long":139.391099},
{"名前":"川端橋南","lat":35.624709","long":139.392553},
{"名前":"川端橋南","lat":35.624599","long":139.392641},
{"名前":"新道橋南","lat":35.62765","long":139.403523},
{"名前":"大栗川橋南","lat":35.626334","long":139.398651},
{"名前":"大栗川橋南","lat":35.626301","long":139.398521},
{"名前":"島田療育センター入口","lat":35.624815","long":139.417767},
{"名前":"松が谷高校入口","lat":35.624749","long":139.416211},
{"名前":"多摩山王橋","lat":35.62628","long":139.423761},
{"名前":"多摩山王橋","lat":35.626183","long":139.423545},
{"名前":"上之根橋","lat":35.628127","long":139.428725},
{"名前":"多摩センター駅入口","lat":35.626728","long":139.425012},
{"名前":"多摩センター駅入口","lat":35.626905","long":139.42492},
{"名前":"乞田新大橋","lat":35.632795","long":139.442507},
{"名前":"乞田新大橋","lat":35.632903","long":139.44271},
{"名前":"貝取","lat":35.620258","long":139.442788},
{"名前":"乞田新大橋","lat":35.633079","long":139.442696},
{"名前":"乞田","lat":35.634629","long":139.442549},
{"名前":"諏訪下橋","lat":35.635933","long":139.448464},
{"名前":"永山橋","lat":35.634656","long":139.44645},
{"名前":"行幸橋","lat":35.644986","long":139.452155},
{"名前":"西府駅入口","lat":35.672212","long":139.459185},
{"名前":"下柚木","lat":35.627659","long":139.383698},
{"名前":"下柚木","lat":35.627694","long":139.383534},
{"名前":"南陽台入口","lat":35.631568","long":139.371525},
{"名前":"殿ヶ谷戸","lat":35.629754","long":139.379269},
{"名前":"南陽台下","lat":35.630292","long":139.376421},
{"名前":"光照寺北","lat":35.635834","long":139.362579},
{"名前":"絹ヶ丘二丁目","lat":35.638812","long":139.359687},
{"名前":"小山長池トンネル南","lat":35.599157","long":139.381576},
{"名前":"宮下","lat":35.591912","long":139.368502},
{"名前":"氷川神社前","lat":35.582451","long":139.361843},
{"名前":"堀之内駅入口","lat":35.624592","long":139.399146},
{"名前":"松ケ谷トンネル西","lat":35.627766","long":139.406336},
{"名前":"堀之内駐在所前","lat":35.632172","long":139.405093},
{"名前":"堀之内駐在所前","lat":35.632271","long":139.404982},
{"名前":"コスモ石油","lat":35.627448","long":139.403801},
{"名前":"出光","lat":35.624601","long":139.392995},
{"名前":"モービル","lat":35.627335","long":139.395305},
{"名前":"ブックオフ","lat":35.626978","long":139.398757},
{"名前":"ファミリーマート","lat":35.626233","long":139.402005},
{"名前":"セブン-イレブン","lat":35.637435","long":139.417531},
{"名前":"セブン-イレブン","lat":35.625371","long":139.327182},
{"名前":"セブンイレブン","lat":35.626599","long":139.341858},
{"名前":"エネオス","lat":35.638803","long":139.360235},
{"名前":"エネオス","lat":35.675688","long":139.446564},
{"名前":"ローソン","lat":35.675626","long":139.445263},
{"名前":"ファミリーマート","lat":35.676077","long":139.445294},
{"名前":"創価女子短期大学","lat":35.688049","long":139.329207},
{"名前":"東京純心女子大学","lat":35.69350","long":139.333885},
{"名前":"明星大学","lat":35.644904","long":139.408898},
{"名前":"ローソン","lat":35.63603","long":139.418358},
{"名前":"駿河台大学入口","lat":35.834048","long":139.336131},
{"名前":"岩蔵温泉","lat":35.826323","long":139.289613},
{"名前":"岩井堂","lat":35.83341","long":139.297062},
{"名前":"東大柏","lat":35.900028","long":139.937504},
{"名前":"橋本駅南入口","lat":35.595272","long":139.339307},
{"名前":"上溝本町","lat":35.556664","long":139.357863},
{"名前":"セブン-イレブン","lat":35.565057","long":139.349819},
{"名前":"忠生四丁目","lat":35.579536","long":139.412779},
{"名前":"忠生四丁目","lat":35.579633","long":139.412803},
{"名前":"木曽中原","lat":35.561503","long":139.428748},
{"名前":"本町田小学校西","lat":35.563485","long":139.432958},
{"名前":"木曽","lat":35.566384","long":139.424083},
{"名前":"山崎団地入口","lat":35.56763","long":139.432219},
{"名前":"木曽団地南","lat":35.563594","long":139.435037},
{"名前":"別所","lat":35.602729","long":139.44544},
{"名前":"小野路","lat":35.594481","long":139.449127},
{"名前":"岩子山","lat":35.593896","long":139.45584},
{"名前":"綾部","lat":35.588698","long":139.45521},
{"名前":"薬師台入口","lat":35.580555","long":139.449082},
{"名前":"山王南","lat":35.583614","long":139.456662},
{"名前":"綾部","lat":35.588695","long":139.455027},
{"名前":"新袋橋","lat":35.588253","long":139.450677},
{"名前":"並木","lat":35.584815","long":139.431741},
{"名前":"野津田公園北","lat":35.596018","long":139.444249},
{"名前":"恵泉女学園大学前","lat":35.610674","long":139.438001},
{"名前":"恵泉女学園大学前","lat":35.610916","long":139.437963},
{"名前":"図師大橋","lat":35.582802","long":139.423841},
{"名前":"常盤","lat":35.585879","long":139.395017},
{"名前":"老人ホーム美郷前","lat":35.596752","long":139.385845},
{"名前":"珈琲館","lat":35.748285","long":139.719628},
{"名前":"旭中学校入口","lat":35.59051","long":139.346919},
{"名前":"ふれあい立体西","lat":35.588891","long":139.351109},
{"名前":"南橋本一丁目","lat":35.58262","long":139.355109},
{"名前":"南橋本一丁目","lat":35.582712","long":139.355116},
{"名前":"小山小学校","lat":35.585577","long":139.355338},
{"名前":"セブン-イレブン","lat":35.592098","long":139.368396},
{"名前":"上由木会館入口","lat":35.621765","long":139.369436},
{"名前":"上由木会館入口","lat":35.621855","long":139.369377},
{"名前":"多摩センター駅前","lat":35.62445","long":139.42640},
{"名前":"多摩センター駅入口","lat":35.626779","long":139.425125},
{"名前":"多摩中央公園","lat":35.622763","long":139.427343},
{"名前":"白山神社前","lat":35.622896","long":139.428498},
{"名前":"多摩青木葉","lat":35.622057","long":139.429988},
{"名前":"白山神社前","lat":35.622807","long":139.42851},
{"名前":"白山神社前","lat":35.622883","long":139.42856},
{"名前":"多摩センター駅前","lat":35.62453","long":139.426353},
{"名前":"多摩センター駅前","lat":35.624491","long":139.426253},
{"名前":"多摩上之根橋南","lat":35.625977","long":139.430346},
{"名前":"多摩センター駅前","lat":35.624412","long":139.426306},
{"名前":"多摩中央署前","lat":35.623277","long":139.420638},
{"名前":"多摩中央署入口","lat":35.62524","long":139.42014},
{"名前":"多摩中央署入口","lat":35.625037","long":139.420247},
{"名前":"多摩鶴牧二丁目","lat":35.621568","long":139.419651},
{"名前":"多摩鶴牧二丁目","lat":35.621502","long":139.419575},
{"名前":"多摩中央署入口","lat":35.625025","long":139.420149},
{"名前":"多摩中央署前","lat":35.623252","long":139.420537},
{"名前":"多摩鶴牧二丁目","lat":35.621583","long":139.419574},
{"名前":"多摩中央公園","lat":35.622722","long":139.427241},
{"名前":"島田療育センター入口","lat":35.625022","long":139.41786},
{"名前":"島田療育センター入口","lat":35.624837","long":139.417895},
{"名前":"多摩南部地域病院","lat":35.622384","long":139.416652},
{"名前":"多摩南部地域病院","lat":35.622322","long":139.416615},
{"名前":"大田平橋東","lat":35.62460","long":139.377886},
{"名前":"柚木事務所西","lat":35.625873","long":139.379546},
{"名前":"柚木事務所西","lat":35.625933","long":139.379482},
{"名前":"柚木事務所前","lat":35.626802","long":139.381384},
{"名前":"首都大学東京入口","lat":35.618167","long":139.375729},
{"名前":"八王子堀之内東","lat":35.631039","long":139.403678},
{"名前":"中和田","lat":35.642461","long":139.428112},
{"名前":"中和田","lat":35.64255","long":139.427973},
{"名前":"帝京大学東","lat":35.639571","long":139.423239},
{"名前":"堰場東","lat":35.637741","long":139.418018},
{"名前":"帝京大学東","lat":35.639474","long":139.423321},
{"名前":"鑓水南","lat":35.612061","long":139.343577},
{"名前":"谷戸入口","lat":35.615615","long":139.358793},
{"名前":"谷戸入口","lat":35.615546","long":139.358821},
{"名前":"協力橋","lat":35.620986","long":139.367238},
{"名前":"協力橋","lat":35.620881","long":139.367276},
{"名前":"首都大学東京西","lat":35.61497","long":139.376377},
{"名前":"スリーエフ","lat":35.618031","long":139.384023},
{"名前":"南大沢","lat":35.610248","long":139.385656},
{"名前":"南大沢駅入口西","lat":35.612082","long":139.378517},
{"名前":"南大沢駅入口西","lat":35.612149","long":139.378469},
{"名前":"南大沢駅前","lat":35.613103","long":139.380362},
{"名前":"首都大学東京東","lat":35.616626","long":139.379657},
{"名前":"南大沢駅入口東","lat":35.613737","long":139.381835},
{"名前":"南大沢駅入口東","lat":35.61381","long":139.381782},
{"名前":"南大沢南","lat":35.604627","long":139.385447},
{"名前":"別所小入口北","lat":35.617116","long":139.396467},
{"名前":"別所小入口北","lat":35.617123","long":139.396594},
{"名前":"ファミリーマート","lat":35.613758","long":139.389562},
{"名前":"和田中学校入口","lat":35.643695","long":139.431472},
{"名前":"和田中学校入口","lat":35.643833","long":139.431448},
{"名前":"殿田橋","lat":35.643444","long":139.430407},
{"名前":"エネオス","lat":35.642952","long":139.428395},
{"名前":"百草園駅前","lat":35.657131","long":139.430878},
{"名前":"百草団地入口","lat":35.659049","long":139.416634},
{"名前":"エネオス","lat":35.659215","long":139.416547},
{"名前":"サンクス","lat":35.655888","long":139.437954},
{"名前":"四谷文化センター西","lat":35.66565","long":139.44400},
{"名前":"四谷文化センター","lat":35.665276","long":139.444572},
{"名前":"住吉町四丁目","lat":35.661735","long":139.451925},
{"名前":"分梅町四丁目","lat":35.664754","long":139.458878},
{"名前":"ファミリーマート","lat":35.669496","long":139.447022},
{"名前":"下畑","lat":35.837375","long":139.295676},
{"名前":"大平公園南","lat":35.605246","long":139.38066},
{"名前":"ファミリーマート","lat":35.621436","long":139.397836},
{"名前":"相模原駅前","lat":35.580347","long":139.370933},
{"名前":"エネオス","lat":35.575938","long":139.366721},
{"名前":"松屋","lat":35.557632","long":139.355348},
{"名前":"山際","lat":35.500503","long":139.361977},
{"名前":"桜台","lat":35.506299","long":139.340189},
{"名前":"セブン-イレブン","lat":35.531325","long":139.332732},
{"名前":"上田名","lat":35.550742","long":139.334916},
{"名前":"セブン-イレブン","lat":35.627517","long":139.393165},
{"名前":"エネオス","lat":35.614251","long":139.342571},
{"名前":"牛沼","lat":35.798715","long":139.492472},
{"名前":"本町小学校前","lat":35.785291","long":139.603587},
{"名前":"多摩中央署前","lat":35.623206","long":139.420621},
{"名前":"多摩鶴牧六丁目","lat":35.612773","long":139.415832},
{"名前":"多摩鶴牧四丁目","lat":35.615006","long":139.421834},
{"名前":"多摩鶴牧四丁目","lat":35.615015","long":139.422002},
{"名前":"ローソン","lat":35.799372","long":139.44692},
{"名前":"サンクス","lat":35.80094","long":139.438428},
{"名前":"ファミリーマート","lat":35.802171","long":139.438681},
{"名前":"国立東京高専","lat":35.638121","long":139.300769},
{"名前":"館町和田","lat":35.635646","long":139.300078},
{"名前":"ゆりのき台団地入口","lat":35.634772","long":139.303103},
{"名前":"大戸交差点","lat":35.613141","long":139.289506},
{"名前":"山王神社前","lat":35.591197","long":139.301354},
{"名前":"久保沢","lat":35.592821","long":139.300431},
{"名前":"昭和橋","lat":35.521681","long":139.367163},
{"名前":"山際","lat":35.500502","long":139.361876},
{"名前":"上溝南中学校","lat":35.546941","long":139.357029},
{"名前":"上溝南中学校","lat":35.546969","long":139.357092},
{"名前":"金田","lat":35.465259","long":139.368078},
{"名前":"相模原養護学校","lat":35.530971","long":139.372672},
{"名前":"座間中学校前","lat":35.49307","long":139.406219},
{"名前":"座間市役所入口","lat":35.497717","long":139.405833},
{"名前":"スターバックス","lat":35.701849","long":139.742445},
{"名前":"麻溝小学校入口","lat":35.527263","long":139.374502},
{"名前":"若松小前","lat":35.540787","long":139.428288},
{"名前":"鵜野森","lat":35.54254","long":139.430022},
{"名前":"セブン-イレブン","lat":35.538759","long":139.426601},
{"名前":"菅原神社","lat":35.56031","long":139.448248},
{"名前":"中町交番前","lat":35.548449","long":139.447506},
{"名前":"原町田五丁目","lat":35.545052","long":139.450525},
{"名前":"相武台団地入口","lat":35.508298","long":139.414412},
{"名前":"高相合同庁舎前","lat":35.529521","long":139.429957},
{"名前":"相武台","lat":35.501064","long":139.40936},
{"名前":"座間警察前","lat":35.481398","long":139.392792},
{"名前":"星の谷観音坂下","lat":35.484114","long":139.396112},
{"名前":"下今泉","lat":35.464139","long":139.388484},
{"名前":"下今泉中通","lat":35.466463","long":139.388625},
{"名前":"下今泉","lat":35.463839","long":139.388456},
{"名前":"河原口","lat":35.450694","long":139.380269},
{"名前":"相模大橋東","lat":35.444821","long":139.378069},
{"名前":"東町郵便局前","lat":35.443529","long":139.369609},
{"名前":"中町","lat":35.443498","long":139.366281},
{"名前":"厚木市役所前","lat":35.443469","long":139.362274},
{"名前":"水引","lat":35.443735","long":139.35807},
{"名前":"水引","lat":35.44375","long":139.357802},
{"名前":"セブン-イレブン","lat":35.444152","long":139.357672},
{"名前":"ミニストップ","lat":35.486878","long":139.390485},
{"名前":"立野台小学校前","lat":35.483869","long":139.40898},
{"名前":"相模原公園入口","lat":35.536513","long":139.390329},
{"名前":"星が丘","lat":35.558271","long":139.374842},
{"名前":"矢部一丁目","lat":35.574632","long":139.38111},
{"名前":"西門","lat":35.57635","long":139.377841},
{"名前":"仲町","lat":35.75382","long":139.696867},
{"名前":"大蔵","lat":35.588821","long":139.461895},
{"名前":"金井一丁目","lat":35.571675","long":139.454375},
{"名前":"金井小学校下","lat":35.573006","long":139.459688},
{"名前":"金井入口","lat":35.58464","long":139.472699},
{"名前":"金井中学校東","lat":35.573843","long":139.467158},
{"名前":"鶴川駅東口","lat":35.584756","long":139.484092},
{"名前":"鶴川駅","lat":35.583407","long":139.479916},
{"名前":"鶴川駅広場前","lat":35.584178","long":139.481546},
{"名前":"ローソン","lat":35.616197","long":139.544987},
{"名前":"百合ヶ丘駅北側","lat":35.608878","long":139.515328},
{"名前":"多摩警察署南側","lat":35.617323","long":139.557252},
{"名前":"専修大学入口","lat":35.607166","long":139.551684},
{"名前":"菅生中学校前","lat":35.59897","long":139.55420},
{"名前":"多摩警察署前","lat":35.617874","long":139.558078},
{"名前":"登戸","lat":35.620552","long":139.562252},
{"名前":"多摩警察署前","lat":35.617771","long":139.558283},
{"名前":"多摩警察署南側","lat":35.617232","long":139.557477},
{"名前":"新一の橋","lat":35.63275","long":139.584648},
{"名前":"一の橋","lat":35.632737","long":139.585717},
{"名前":"三本杉陸橋","lat":35.636987","long":139.621043},
{"名前":"三本杉陸橋","lat":35.637065","long":139.621255},
{"名前":"世田谷区役所入口","lat":35.642458","long":139.652923},
{"名前":"松陰神社入口","lat":35.64230","long":139.654887},
{"名前":"保健センター入口","lat":35.643283","long":139.66327},
{"名前":"三宿","lat":35.647327","long":139.677961},
{"名前":"三宿","lat":35.647077","long":139.678071},
{"名前":"池尻小学校","lat":35.644994","long":139.679156},
{"名前":"世田谷公園","lat":35.643213","long":139.680119},
{"名前":"五本木","lat":35.632226","long":139.686632},
{"名前":"駒沢陸橋","lat":35.627522","long":139.67674},
{"名前":"駒沢陸橋","lat":35.627443","long":139.676455},
{"名前":"都立大駅前","lat":35.61831","long":139.675431},
{"名前":"ファミリーマート","lat":35.626586","long":139.672302},
{"名前":"若林","lat":35.642489","long":139.660717},
{"名前":"若林","lat":35.642597","long":139.660943},
{"名前":"大原一丁目西","lat":35.669047","long":139.663305},
{"名前":"大原二丁目","lat":35.669034","long":139.661378},
{"名前":"調布IC","lat":35.662327","long":139.538612},
{"名前":"調布駅北口","lat":35.653143","long":139.544106},
{"名前":"調布駅入口","lat":35.655163","long":139.544599},
{"名前":"多摩川原橋","lat":35.644815","long":139.526866},
{"名前":"稲城福祉センター入口","lat":35.639229","long":139.500114},
{"名前":"稲城福祉センター入口","lat":35.639068","long":139.499906},
{"名前":"神王橋","lat":35.637098","long":139.497374},
{"名前":"駒沢学園入口","lat":35.628155","long":139.489591},
{"名前":"若葉台入口","lat":35.621278","long":139.47898},
{"名前":"若葉台駅東","lat":35.620832","long":139.474665},
{"名前":"黒川","lat":35.61363","long":139.469091},
{"名前":"西原町一丁目","lat":35.68602","long":139.45948},
{"名前":"武蔵野公園東","lat":35.687001","long":139.520402},
{"名前":"武蔵野公園東","lat":35.686887","long":139.520349},
{"名前":"基督教大裏門","lat":35.681547","long":139.533949},
{"名前":"航空宇宙技術研究所","lat":35.68119","long":139.557882},
{"名前":"基督教大裏門","lat":35.681439","long":139.53373},
{"名前":"三鷹郵便局前","lat":35.683671","long":139.561024},
{"名前":"エネオス","lat":35.683973","long":139.558186},
{"名前":"社会教育会館前","lat":35.689113","long":139.564275},
{"名前":"南浦","lat":35.692059","long":139.564705},
{"名前":"三鷹市狐久保","lat":35.691249","long":139.569345},
{"名前":"下連雀七丁目","lat":35.69267","long":139.561329},
{"名前":"三鷹市八幡前","lat":35.693043","long":139.559369},
{"名前":"三鷹市役所前","lat":35.683749","long":139.558336},
{"名前":"深大寺小前","lat":35.66584","long":139.552892},
{"名前":"下布田","lat":35.653199","long":139.551641},
{"名前":"布田駅前","lat":35.651226","long":139.55111},
{"名前":"エネオス","lat":35.657484","long":139.532874},
{"名前":"八幡宿","lat":35.670002","long":139.483599},
{"名前":"美好町三丁目西","lat":35.671153","long":139.465644},
{"名前":"青果市場東","lat":35.67589","long":139.446938},
{"名前":"青果市場東","lat":35.675866","long":139.446815},
{"名前":"青果市場前","lat":35.675771","long":139.445706},
{"名前":"日野万願寺駅前","lat":35.670567","long":139.420537},
{"名前":"日野万願寺駅前","lat":35.67046","long":139.420583},
{"名前":"神明一丁目","lat":35.668719","long":139.395222},
{"名前":"神明二丁目","lat":35.668825","long":139.392417},
{"名前":"日野跨線橋","lat":35.668929","long":139.390157},
{"名前":"大和田町北","lat":35.663436","long":139.353073},
{"名前":"元町","lat":35.791689","long":139.463877},
{"名前":"金山町","lat":35.790925","long":139.45971},
{"名前":"大田平橋","lat":35.623736","long":139.375922},
{"名前":"丸子橋","lat":35.585903","long":139.669933},
{"名前":"松原","lat":35.670723","long":139.65281},
{"名前":"大原","lat":35.672644","long":139.660512},
{"名前":"大原","lat":35.672668","long":139.660601},
{"名前":"大原二丁目","lat":35.669097","long":139.661496},
{"名前":"羽根木","lat":35.66785","long":139.661274},
{"名前":"新代田駅","lat":35.662529","long":139.660376},
{"名前":"松ノ木坂陸橋","lat":35.62056","long":139.680568},
{"名前":"都立大駅前","lat":35.618254","long":139.675491},
{"名前":"等々力不動前","lat":35.605191","long":139.647388},
{"名前":"等々力不動前","lat":35.604984","long":139.647421},
{"名前":"千葉北IC","lat":35.671324","long":140.121611},
{"名前":"エネオス","lat":35.602385","long":139.37613},
{"名前":"森野南","lat":35.548249","long":139.437176},
{"名前":"JR町田駅前","lat":35.542462","long":139.445765},
{"名前":"町田市役所","lat":35.546247","long":139.440422},
{"名前":"ファミリーマート","lat":町田中町二丁目店","lat":35.551991","long":139.440359},
{"名前":"古淵駅入口","lat":35.552464","long":139.417329},
{"名前":"古淵駅入口","lat":35.552405","long":139.417275},
{"名前":"古淵中央‘","lat":35.555052","long":139.419674},
{"名前":"境川団地中央","lat":35.558687","long":139.424585},
{"名前":"古淵駅南","lat":35.554043","long":139.418633},
{"名前":"木曽交番前","lat":35.563541","long":139.426459},
{"名前":"今井谷戸","lat":35.57238","long":139.443053},
{"名前":"山崎団地東","lat":35.56879","long":139.43736},
{"名前":"千代ヶ丘入口","lat":35.570673","long":139.43854},
{"名前":"金井東","lat":35.580755","long":139.46984},
{"名前":"柿生","lat":35.590969","long":139.496969},
{"名前":"マイコンシティ入口","lat":35.609902","long":139.471698},
{"名前":"藤の木","lat":35.585296","long":139.490333},
{"名前":"鶴川一丁目","lat":35.587793","long":139.480282},
{"名前":"鶴川四丁目","lat":35.594865","long":139.458066},
{"名前":"井の花","lat":35.59101","long":139.459219},
{"名前":"鶴川団地東","lat":35.592176","long":139.477517},
{"名前":"和光学園","lat":35.597163","long":139.460825},
{"名前":"別所","lat":35.602712","long":139.445354},
{"名前":"セブン-イレブン","lat":35.312973","long":139.537415},
{"名前":"やまかストアー","lat":35.315099","long":139.549387},
{"名前":"英勝寺","lat":35.32511","long":139.549836},
{"名前":"寺崎北","lat":35.713314","long":140.218318},
{"名前":"多摩大橋北","lat":35.696898","long":139.375951},
{"名前":"大神町","lat":35.702074","long":139.357772},
{"名前":"宮沢東","lat":35.69895","long":139.368673},
{"名前":"宮沢","lat":35.699722","long":139.36646},
{"名前":"堂方上","lat":35.70583","long":139.34989},
{"名前":"市役所前","lat":35.704125","long":139.353431},
{"名前":"堂方上","lat":35.705865","long":139.349811},
{"名前":"旭ヶ丘二丁目南","lat":35.657214","long":139.372142},
{"名前":"旭が丘一丁目","lat":35.65884","long":139.373255},
{"名前":"旭が丘２丁目北","lat":35.660716","long":139.37303},
{"名前":"さくら町","lat":35.666431","long":139.373863},
{"名前":"スポーツ公園南","lat":35.678959","long":139.403447},
{"名前":"日野税務署西","lat":35.669935","long":139.408631},
{"名前":"日野税務署西","lat":35.669845","long":139.408608},
{"名前":"高幡橋南","lat":35.663116","long":139.406601},
{"名前":"中程久保","lat":35.653115","long":139.408734},
{"名前":"矢野口駅東","lat":35.641357","long":139.521378},
{"名前":"府中本町駅入口","lat":35.666977","long":139.477943},
{"名前":"船堀","lat":35.68381","long":139.864298},
{"名前":"瑞江","lat":35.693319","long":139.89776},
{"名前":"篠崎","lat":35.705995","long":139.903737},
{"名前":"ファミリーマート","lat":35.628025","long":139.403857},
{"名前":"堀之内駅前","lat":35.625366","long":139.400881},
{"名前":"山王下二丁目","lat":35.62749","long":139.421024},
{"名前":"松が谷中学校入口","lat":35.63242","long":139.416919},
{"名前":"由木東事務所","lat":35.634375","long":139.42042},
{"名前":"由木東事務所","lat":35.634304","long":139.420319},
{"名前":"六浦西第三公園","lat":35.321623","long":139.597613},
{"名前":"鴨居","lat":35.510957","long":139.567116},
{"名前":"中山","lat":35.514733","long":139.539284},
{"名前":"大口","lat":35.492449","long":139.646214},
{"名前":"十日市場","lat":35.526292","long":139.51663},
{"名前":"八王子みなみ野","lat":35.63124","long":139.330993},
{"名前":"片倉","lat":35.639829","long":139.341592},
{"名前":"小机","lat":35.508527","long":139.600093},
{"名前":"東神奈川","lat":35.477943","long":139.633327},
{"名前":"長津田","lat":35.531771","long":139.495342},
{"名前":"相原","lat":35.606838","long":139.331767},
{"名前":"大戸踏切","lat":35.604514","long":139.331935},
{"名前":"セブン-イレブン","lat":35.594022","long":139.349909},
{"名前":"原町田二丁目","lat":35.54025","long":139.453211},
{"名前":"諏訪神社入口","lat":35.604755","long":139.327084},
{"名前":"京王永山","lat":35.630258","long":139.448356},
{"名前":"橋本","lat":35.594942","long":139.344147},
{"名前":"調布","lat":35.651865","long":139.544493},
{"名前":"京王稲田堤","lat":35.634029","long":139.53155},
{"名前":"高松","lat":35.71015","long":139.413249},
{"名前":"甲州街道","lat":35.678277","long":139.409266},
{"名前":"柴崎体育館","lat":35.689972","long":139.409418},
{"名前":"立飛","lat":35.714487","long":139.417238},
{"名前":"泉体育館","lat":35.718793","long":139.419571},
{"名前":"砂川七番","lat":35.723388","long":139.418156},
{"名前":"大塚・帝京大学","lat":35.636883","long":139.416451},
{"名前":"玉川上水","lat":35.732026","long":139.417926},
{"名前":"松が谷","lat":35.631815","long":139.422028},
{"名前":"中央大学・明星大学","lat":35.641865","long":139.408761},
{"名前":"桜街道","lat":35.739083","long":139.416646},
{"名前":"上北台","lat":35.745829","long":139.415819},
{"名前":"高幡不動","lat":35.661277","long":139.415209},
{"名前":"万願寺","lat":35.671225","long":139.420075},
{"名前":"立川南","lat":35.696125","long":139.41260},
{"名前":"立川北","lat":35.699647","long":139.41241},
{"名前":"五月台","lat":35.600141","long":139.493677},
{"名前":"黒川","lat":35.613174","long":139.470786},
{"名前":"唐木田","lat":35.616719","long":139.411731},
{"名前":"小田急永山","lat":35.629913","long":139.448215},
{"名前":"板橋一丁目","lat":35.748483","long":139.716578},
{"名前":"海の公園柴口","lat":35.342105","long":139.635906},
{"名前":"並木北","lat":35.371872","long":139.642653},
{"名前":"鳥浜","lat":35.377051","long":139.64173},
{"名前":"野島公園","lat":35.330527","long":139.631555},
{"名前":"八景島","lat":35.340822","long":139.640836},
{"名前":"海の公園南口","lat":35.337166","long":139.632035},
{"名前":"市大医学部","lat":35.343945","long":139.650068},
{"名前":"幸浦","lat":35.358337","long":139.643739},
{"名前":"福浦","lat":35.349648","long":139.648543},
{"名前":"産業振興センター","lat":35.353425","long":139.646291},
{"名前":"とちのき通り西","lat":35.462785","long":139.626813},
{"名前":"とちのき通り西","lat":35.462785","long":139.62666},
{"名前":"とちのき通り西","lat":35.462707","long":139.626793},
{"名前":"とちのき通り西","lat":35.462707","long":139.626643},
{"名前":"さくら通り西","lat":35.453499","long":139.631009},
{"名前":"みなとみらい四丁目","lat":35.458668","long":139.62702},
{"名前":"開成","lat":35.32629","long":139.135925},
{"名前":"東海大学前","lat":35.373169","long":139.271254},
{"名前":"足柄","lat":35.271937","long":139.154425},
{"名前":"成城学園前","lat":35.639911","long":139.598499},
{"名前":"生田","lat":35.615037","long":139.542238},
{"名前":"百合ヶ丘","lat":35.609065","long":139.516152},
{"名前":"秦野","lat":35.37029","long":139.225726},
{"名前":"喜多見","lat":35.636497","long":139.586709},
{"名前":"螢田","lat":35.285015","long":139.152078},
{"名前":"愛甲石田","lat":35.417607","long":139.343943},
{"名前":"本厚木","lat":35.439336","long":139.364302},
{"名前":"新松田","lat":35.344704","long":139.139605},
{"名前":"玉川学園前","lat":35.564283","long":139.463904},
{"名前":"梅ヶ丘","lat":35.656202","long":139.654275},
{"名前":"富水","lat":35.296307","long":139.14532},
{"名前":"祖師ヶ谷大蔵","lat":35.643291","long":139.609773},
{"名前":"読売ランド前","lat":35.614789","long":139.52796},
{"名前":"鶴巻温泉","lat":35.380833","long":139.277641},
{"名前":"代々木八幡","lat":35.669621","long":139.688839},
{"名前":"経堂","lat":35.65135","long":139.636681},
{"名前":"千歳船橋","lat":35.647387","long":139.623897},
{"名前":"狛江","lat":35.63235","long":139.577455},
{"名前":"向ヶ丘遊園","lat":35.617262","long":139.564613},
{"名前":"和泉多摩川","lat":35.627518","long":139.573709},
{"名前":"代々木上原","lat":35.669008","long":139.679787},
{"名前":"伊勢原","lat":35.39597","long":139.313497},
{"名前":"豪徳寺","lat":35.653543","long":139.646896},
{"名前":"座間","lat":35.480701","long":139.399943},
{"名前":"渋沢","lat":35.374108","long":139.184711},
{"名前":"セブン-イレブン","lat":35.565257","long":139.463017},
{"名前":"玉川学園前","lat":35.56500","long":139.463422},
{"名前":"奈良保育園前","lat":35.563642","long":139.481515},
{"名前":"奈良北団地入口","lat":35.563822","long":139.48243},
{"名前":"三輪緑山住宅中央入口","lat":35.572946","long":139.483929},
{"名前":"岡上駐在所前","lat":35.580284","long":139.485246},
{"名前":"市が尾駅入口","lat":35.549798","long":139.539101},
{"名前":"市が尾駅入口","lat":35.549748","long":139.538999},
{"名前":"荏田高校入口","lat":35.547912","long":139.557165},
{"名前":"荏田高校入口","lat":35.547814","long":139.557248},
{"名前":"荏田高校入口","lat":35.54773","long":139.557101},
{"名前":"荏田高校入口","lat":35.547808","long":139.557015},
{"名前":"向原","lat":35.535142","long":139.583486},
{"名前":"第三京浜入口","lat":35.521004","long":139.590948},
{"名前":"第三京浜入口","lat":35.521041","long":139.591126},
{"名前":"第三京浜入口","lat":35.606485","long":139.64252},
{"名前":"駒沢","lat":35.631152","long":139.656522},
{"名前":"駒沢","lat":35.630977","long":139.656596},
{"名前":"駒沢公園西口","lat":35.627885","long":139.656141},
{"名前":"深沢不動","lat":35.621716","long":139.654061},
{"名前":"駒沢大学駅前","lat":35.633087","long":139.66120},
{"名前":"上馬","lat":35.635617","long":139.664622},
{"名前":"上馬","lat":35.635481","long":139.66482},
{"名前":"多摩美大前","lat":35.614917","long":139.636934},
{"名前":"戸塚駅東口入口","lat":35.402483","long":139.535364},
{"名前":"折本町","lat":35.520611","long":139.588949},
{"名前":"テクノゾーン入口","lat":35.52040","long":139.587721},
{"名前":"前耕地","lat":35.519957","long":139.585421},
{"名前":"梅田橋","lat":35.517775","long":139.575589},
{"名前":"運輸支局前","lat":35.518551","long":139.573857},
{"名前":"佐江戸","lat":35.519352","long":139.560226},
{"名前":"都田小学校","lat":35.519329","long":139.572131},
{"名前":"都田中学校入口","lat":35.520325","long":139.568695},
{"名前":"石橋","lat":35.51985","long":139.557335},
{"名前":"中河原","lat":35.659617","long":139.457894},
{"名前":"多磨霊園","lat":35.666242","long":139.502623},
{"名前":"長沼","lat":35.642785","long":139.366026},
{"名前":"西調布","lat":35.657047","long":139.530186},
{"名前":"聖蹟桜ヶ丘","lat":35.650798","long":139.446893},
{"名前":"笹塚","lat":35.673652","long":139.667096},
{"名前":"東府中","lat":35.668958","long":139.495058},
{"名前":"分倍河原","lat":35.668476","long":139.468506},
{"名前":"新宿","lat":35.688858","long":139.699989},
{"名前":"府中","lat":35.672205","long":139.480175},
{"名前":"武蔵野台","lat":35.664255","long":139.510938},
{"名前":"南平","lat":35.655098","long":139.392521},
{"名前":"飛田給","lat":35.660252","long":139.523368},
{"名前":"平山城址公園","lat":35.647528","long":139.380177},
{"名前":"狭間","lat":35.640687","long":139.293256},
{"名前":"めじろ台","lat":35.643545","long":139.308107},
{"名前":"山田","lat":35.644365","long":139.32109},
{"名前":"京王片倉","lat":35.644362","long":139.337002},
{"名前":"北野","lat":35.644382","long":139.354265},
{"名前":"原当麻","lat":35.529245","long":139.375091},
{"名前":"入谷","lat":35.47871","long":139.391703},
{"名前":"上溝","lat":35.557715","long":139.363229},
{"名前":"倉見","lat":35.394903","long":139.378389},
{"名前":"海老名","lat":35.454285","long":139.389222},
{"名前":"寒川","lat":35.367634","long":139.387398},
{"名前":"香川","lat":35.356204","long":139.399918},
{"名前":"門沢橋","lat":35.406481","long":139.380342},
{"名前":"番田","lat":35.545434","long":139.363067},
{"名前":"相武台下","lat":35.49328","long":139.386194},
{"名前":"社家","lat":35.420732","long":139.377166},
{"名前":"下溝","lat":35.518244","long":139.380607},
{"名前":"宮山","lat":35.381876","long":139.379704},
{"名前":"北茅ヶ崎","lat":35.339306","long":139.407643},
{"名前":"代々木地域安全センター前","lat":35.681483","long":139.692832},
{"名前":"代々木三丁目","lat":35.681897","long":139.694133},
{"名前":"ファルマン通り","lat":35.790834","long":139.469845},
{"名前":"パシフィコ横浜前","lat":35.458221","long":139.635379},
{"名前":"パシフィコ横浜前","lat":35.458167","long":139.635066},
{"名前":"馬事公苑前駐在所","lat":35.634225","long":139.632047},
{"名前":"玉川警察署脇","lat":35.612935","long":139.647946},
{"名前":"弦巻五丁目","lat":35.636402","long":139.636408},
{"名前":"千歳船橋駅南","lat":35.647147","long":139.621933},
{"名前":"千歳船橋駅南","lat":35.647125","long":139.621993},
{"名前":"笹原小学校東","lat":35.644955","long":139.623031},
{"名前":"桜丘中学校","lat":35.64333","long":139.627929},
{"名前":"中町四","lat":35.619064","long":139.642265},
{"名前":"都筑インター入口","lat":35.542978","long":139.600045},
{"名前":"セブン-イレブン","lat":35.536296","long":139.605551},
{"名前":"万国橋","lat":35.452911","long":139.639724},
{"名前":"万国橋","lat":35.452863","long":139.639812},
{"名前":"みなとみらいホール","lat":35.457632","long":139.634067},
{"名前":"みなとみらいホール","lat":35.457552","long":139.634127},
{"名前":"パシフィコ横浜前","lat":35.458086","long":139.63514},
{"名前":"パシフィコ横浜前","lat":35.45830","long":139.635316},
{"名前":"みなとみらい駅前","lat":35.457099","long":139.633079},
{"名前":"みなとみらい駅前","lat":35.457024","long":139.63314},
{"名前":"みなとみらい駅前","lat":35.457054","long":139.632997},
{"名前":"すずかけ通り西","lat":35.460533","long":139.626658},
{"名前":"美術館南","lat":35.455849","long":139.630772},
{"名前":"美術館南","lat":35.455767","long":139.630847},
{"名前":"いちょう通り西","lat":35.457084","long":139.628122},
{"名前":"井土ヶ谷","lat":35.432416","long":139.602483},
{"名前":"関内ホール前","lat":35.446781","long":139.636632},
{"名前":"開港資料館前","lat":35.448035","long":139.643598},
{"名前":"本牧神社前","lat":35.421606","long":139.660775},
{"名前":"坂下橋","lat":35.419105","long":139.625796},
{"名前":"尾上町","lat":35.445846","long":139.635826},
{"名前":"尾上町五丁目","lat":35.447352","long":139.633742},
{"名前":"磯子橋","lat":35.417133","long":139.626569},
{"名前":"四間道路入口","lat":35.421298","long":139.625007},
{"名前":"立川柴崎町四丁目","lat":35.691695","long":139.410259},
{"名前":"立日橋北","lat":35.687484","long":139.408496},
{"名前":"立川高校西","lat":35.693756","long":139.411258},
{"名前":"坂下","lat":35.60585","long":139.338178},
{"名前":"兵衛中央･東京造形大学入口","lat":35.626719","long":139.330065},
{"名前":"兵衛橋北","lat":35.638345","long":139.339462},
{"名前":"兵衛中央･東京造形大学入口","lat":35.626733","long":139.330277},
{"名前":"成田街道入口","lat":35.694795","long":140.013816},
{"名前":"前原団地入口","lat":35.696688","long":140.01939},
{"名前":"郷土資料館前","lat":35.711511","long":140.050171},
{"名前":"車検事務所前","lat":35.716789","long":140.064199},
{"名前":"二宮神社入口","lat":35.710782","long":140.047257},
{"名前":"日本大学入口","lat":35.714742","long":140.059446},
{"名前":"港北工業団地北側","lat":35.543537","long":139.600599},
{"名前":"都筑インター入口","lat":35.543068","long":139.600143},
{"名前":"上星川二丁目","lat":35.472054","long":139.575668},
{"名前":"下川井インター","lat":35.482438","long":139.513985},
{"名前":"下川井インター","lat":35.48210","long":139.513344},
{"名前":"下川井インター","lat":35.482176","long":139.513242},
{"名前":"下川井インター","lat":35.482504","long":139.513872},
{"名前":"共和中学校東","lat":35.565727","long":139.39904},
{"名前":"共和中学校入口","lat":35.566806","long":139.396584},
{"名前":"蔵敷交番前","lat":35.595807","long":139.555283},
{"名前":"保木入口","lat":35.586823","long":139.542976},
{"名前":"新橋","lat":35.574153","long":139.550005},
{"名前":"すみれが丘南","lat":35.565154","long":139.57711},
{"名前":"百石橋西側","lat":35.555242","long":139.601793},
{"名前":"東山田スポーツ会館前","lat":35.554172","long":139.606381},
{"名前":"東山田スポーツ会館前","lat":35.554075","long":139.60641},
{"名前":"百石橋西側","lat":35.55519","long":139.601721},
{"名前":"すみれが丘南","lat":35.565098","long":139.57705},
{"名前":"新橋","lat":35.574053","long":139.549838},
{"名前":"元石川町","lat":35.577834","long":139.548056},
{"名前":"保木入口","lat":35.58682","long":139.542876},
{"名前":"新北側橋","lat":35.552231","long":139.605145},
{"名前":"本町三丁目","lat":35.449033","long":139.638315},
{"名前":"中村橋","lat":35.430723","long":139.620531},
{"名前":"坂下橋","lat":35.419119","long":139.625886},
{"名前":"越戸橋","lat":35.414773","long":139.597616},
{"名前":"日ノ出町1丁目","lat":35.443836","long":139.626413},
{"名前":"宮河町3丁目","lat":35.446997","long":139.628159},
{"名前":"桜木町二丁目","lat":35.450164","long":139.630965},
{"名前":"日本丸","lat":35.452163","long":139.632443},
{"名前":"羽衣町","lat":35.444694","long":139.634613},
{"名前":"馬車道","lat":35.446218","long":139.635027},
{"名前":"清水橋","lat":35.383013","long":139.577182},
{"名前":"鍛冶ケ谷","lat":35.366892","long":139.560356},
{"名前":"公田","lat":35.363716","long":139.556873},
{"名前":"元町橋交番前","lat":35.445007","long":139.578047},
{"名前":"磯子警察署前","lat":35.41283","long":139.624151},
{"名前":"磯子橋","lat":35.417184","long":139.626636},
{"名前":"拝島三叉路","lat":35.711331","long":139.338315},
{"名前":"日新町五丁目東","lat":35.668389","long":139.446416},
{"名前":"西調布駅入口","lat":35.658221","long":139.531188},
{"名前":"上石原","lat":35.659956","long":139.532246},
{"名前":"調布","lat":35.659979","long":139.535548},
{"名前":"小島町","lat":35.655904","long":139.54204},
{"名前":"国領駅入口","lat":35.650576","long":139.557035},
{"名前":"八雲台二丁目","lat":35.652645","long":139.556789},
{"名前":"国領町八丁目","lat":35.646075","long":139.562582},
{"名前":"多摩川住宅入口","lat":35.645254","long":139.560225},
{"名前":"中の橋交差点","lat":35.677492","long":139.614281},
{"名前":"高井戸西交番前","lat":35.681557","long":139.614974},
{"名前":"南荻窪一丁目南","lat":35.694024","long":139.617142},
{"名前":"エネオス","lat":35.695564","long":139.617264},
{"名前":"荻窪二丁目","lat":35.698835","long":139.617366},
{"名前":"船橋四丁目","lat":35.655523","long":139.615429},
{"名前":"砧二丁目","lat":35.645431","long":139.61801},
{"名前":"荻窪二丁目","lat":35.698841","long":139.61748},
{"名前":"吉沢橋","lat":35.617937","long":139.619649},
{"名前":"尾山台一丁目","lat":35.602316","long":139.656576},
{"名前":"尾山台一丁目","lat":35.602398","long":139.656664},
{"名前":"等々力駅前","lat":35.609103","long":139.647398},
{"名前":"玉川警察署","lat":35.614204","long":139.648463},
{"名前":"松原","lat":35.670516","long":139.652974},
{"名前":"西永福","lat":35.680068","long":139.636216},
{"名前":"環八五日市交差点","lat":35.690112","long":139.616269},
{"名前":"東電荻窪支社前","lat":35.70294","long":139.616466},
{"名前":"荻窪白山神社北","lat":35.705567","long":139.615743},
{"名前":"井草三丁目","lat":35.727827","long":139.614374},
{"名前":"下井草五丁目","lat":35.723393","long":139.614273},
{"名前":"練馬北町陸橋西","lat":35.762729","long":139.66212},
{"名前":"泉南","lat":35.673809","long":139.660037},
{"名前":"南台三丁目","lat":35.683493","long":139.669389},
{"名前":"環八五日市交差点","lat":35.690077","long":139.616515},
{"名前":"柳橋","lat":35.713957","long":139.544014},
{"名前":"柳橋","lat":35.714205","long":139.544012},
{"名前":"境浄水場西","lat":35.71233","long":139.543875},
{"名前":"境一丁目","lat":35.704144","long":139.546314},
{"名前":"境二丁目第一","lat":35.70443","long":139.543453},
{"名前":"桜橋","lat":35.709512","long":139.543714},
{"名前":"三鷹市野崎","lat":35.683721","long":139.549581},
{"名前":"大成高校前","lat":35.688291","long":139.559209},
{"名前":"三鷹第6小学校前","lat":35.68745","long":139.564009},
{"名前":"野崎八幡前","lat":35.681778","long":139.548714},
{"名前":"野崎八幡前","lat":35.681792","long":139.548606},
{"名前":"神代植物公園前","lat":35.671836","long":139.544523},
{"名前":"駒場東大前","lat":35.658916","long":139.683361},
{"名前":"富士見ヶ丘","lat":35.684881","long":139.607039},
{"名前":"三鷹台","lat":35.692214","long":139.589039},
{"名前":"高井戸","lat":35.683301","long":139.614962},
{"名前":"谷野街道入口東","lat":35.678337","long":139.335696},
{"名前":"三屋通り中","lat":35.668653","long":139.437556},
{"名前":"三屋通り","lat":35.667683","long":139.438552},
{"名前":"四谷体育館東","lat":35.664225","long":139.442977},
{"名前":"日新町高速下","lat":35.669539","long":139.444791},
{"名前":"日新町中央","lat":35.669075","long":139.446953},
{"名前":"日新町中央","lat":35.669059","long":139.447081},
{"名前":"日新町五丁目東","lat":35.668449","long":139.446328},
{"名前":"府中西高校前","lat":35.672004","long":139.448773},
{"名前":"府中西高校前","lat":35.672022","long":139.448894},
{"名前":"泉中央遊園","lat":35.675758","long":139.435458},
{"名前":"泉中央遊園","lat":35.675855","long":139.435454},
{"名前":"こども医療センター入口","lat":35.42403","long":139.574346},
{"名前":"カワチ薬品","lat":35.547556","long":140.178991},
{"名前":"マックスバリュ","lat":35.543741","long":140.173986},
{"名前":"松郷","lat":35.800289","long":139.499617},
{"名前":"亀ヶ谷","lat":35.809245","long":139.521445},
{"名前":"スリーエフ","lat":35.581595","long":140.132079},
{"名前":"くら寿司","lat":35.59663","long":140.13585},
{"名前":"山崎高校南","lat":35.57540","long":139.433632},
{"名前":"忠生公園入口","lat":35.572577","long":139.420362},
{"名前":"中渕","lat":35.564071","long":139.408832},
{"名前":"セブン-イレブン","lat":35.546534","long":139.380846},
{"名前":"セブン-イレブン","lat":35.558097","long":139.384194},
{"名前":"税務署入口","lat":35.568559","long":139.372277},
{"名前":"出光","lat":35.570773","long":139.353573},
{"名前":"横山二丁目","lat":35.565037","long":139.369675},
{"名前":"矢部","lat":35.572284","long":139.385646},
{"名前":"矢部二丁目","lat":35.572798","long":139.384631},
{"名前":"中央公民館入口","lat":35.56708","long":139.38079},
{"名前":"共和三丁目","lat":35.562762","long":139.39854},
{"名前":"セブン-イレブン","lat":35.563184","long":139.403328},
{"名前":"共和小前","lat":35.559968","long":139.395399},
{"名前":"矢部町","lat":35.577334","long":139.404348},
{"名前":"日大三高入口","lat":35.589913","long":139.418449},
{"名前":"山崎中学校前","lat":35.578099","long":139.432927},
{"名前":"滝山南","lat":35.741175","long":139.501586},
{"名前":"久米川町","lat":35.772064","long":139.477741},
{"名前":"小島町三丁目","lat":35.649078","long":139.541564},
{"名前":"布田4丁目","lat":35.647751","long":139.545326},
{"名前":"大谷団地入口","lat":35.668382","long":139.35353},
{"名前":"大谷団地入口","lat":35.668382","long":139.353635},
{"名前":"大谷団地入口","lat":35.668256","long":139.353673},
{"名前":"大谷団地入口","lat":35.668255","long":139.353565},
{"名前":"あかはけ橋","lat":35.661047","long":139.358331},
{"名前":"大和田坂上","lat":35.665484","long":139.362735},
{"名前":"平山三丁目","lat":35.645887","long":139.384704},
{"名前":"平山一丁目","lat":35.644994","long":139.392125},
{"名前":"小金井南中西","lat":35.689548","long":139.498288},
{"名前":"小金井南中西","lat":35.689432","long":139.498321},
{"名前":"町田駅南","lat":35.54092","long":139.443536},
{"名前":"鹿島神社","lat":35.538544","long":139.444507},
{"名前":"天文台北","lat":35.68126","long":139.538708},
{"名前":"天文台北","lat":35.681176","long":139.538703},
{"名前":"狛江三叉路","lat":35.631491","long":139.582056},
{"名前":"狛江郵便局東","lat":35.64126","long":139.575798},
{"名前":"国領小学校東","lat":35.64886","long":139.564733},
{"名前":"若松町二丁目","lat":35.67038","long":139.498582},
{"名前":"鵜野森旧道","lat":35.54375","long":139.431221},
{"名前":"谷口","lat":35.535913","long":139.439316},
{"名前":"調布IC","lat":35.659877","long":139.531729},
{"名前":"セブン-イレブン","lat":35.563688","long":140.176374},
{"名前":"焼肉DINING","lat":大和","lat":鎌取店","lat":35.560197","long":140.179946},
{"名前":"ローソン・スリーエフ","lat":35.552448","long":140.191343},
{"名前":"つきみ野四丁目","lat":35.507563","long":139.459129},
{"名前":"セブン-イレブン","lat":35.54894","long":140.18692},
{"名前":"中央林間駅東口","lat":35.508903","long":139.445099},
{"名前":"中央林間二丁目","lat":35.504718","long":139.445605},
{"名前":"ファミリーマート","lat":35.507952","long":139.446077},
{"名前":"中央林間病院","lat":35.508321","long":139.446106},
{"名前":"横浜銀行","lat":35.507906","long":139.445343},
{"名前":"オリンピック","lat":35.508754","long":139.445249},
{"名前":"魚民","lat":35.507935","long":139.44561},
{"名前":"山内農場","lat":35.507926","long":139.445515},
{"名前":"白洋舎","lat":35.508033","long":139.446719},
{"名前":"欧風台所ラパレット","lat":35.508804","long":139.448009},
{"名前":"エネオス","lat":35.508992","long":139.447108},
{"名前":"大踏切","lat":35.796183","long":139.447495},
{"名前":"セブン-イレブン","lat":35.553127","long":140.166028},
{"名前":"マクドナルド","lat":35.551712","long":140.170344},
{"名前":"ローソン","lat":35.551575","long":140.169541},
{"名前":"ガスト","lat":35.550839","long":140.171385},
{"名前":"ローソン","lat":35.545779","long":140.171838},
{"名前":"ファミリーマート","lat":35.536222","long":140.171448},
{"名前":"成木二丁目西","lat":35.831911","long":139.269135},
{"名前":"日本文化大学入口","lat":35.635917","long":139.339167},
{"名前":"柏IC","lat":35.905532","long":139.930975},
{"名前":"マクドナルド","lat":35.528672","long":140.182506},
{"名前":"榎木町","lat":35.332135","long":139.359007},
{"名前":"セブン-イレブン","lat":35.35826","long":139.357931},
{"名前":"第二交通機動隊前","lat":35.414535","long":139.36309},
{"名前":"工業団地入口","lat":35.33162","long":139.362635},
{"名前":"浅間神社前","lat":35.37957","long":139.510342},
{"名前":"影取町","lat":35.368851","long":139.500044},
{"名前":"品濃口","lat":35.421308","long":139.556323},
{"名前":"青木橋","lat":35.471079","long":139.626503},
{"名前":"青木通","lat":35.470078","long":139.627544},
{"名前":"青木通","lat":35.469977","long":139.627536},
{"名前":"青木通","lat":35.470025","long":139.627395},
{"名前":"青木橋","lat":35.470973","long":139.626463},
{"名前":"旭町三丁目","lat":35.43864","long":139.370564},
{"名前":"ミニストップ","lat":35.557869","long":140.177252},
{"名前":"セブン-イレブン","lat":35.55925","long":140.176726},
{"名前":"池之端一丁目","lat":35.709302","long":139.76977},
{"名前":"外神田五丁目","lat":35.702993","long":139.771699},
{"名前":"魚藍坂下","lat":35.643897","long":139.736366},
{"名前":"魚藍坂下","lat":35.643976","long":139.736331},
{"名前":"ゼームス坂上","lat":35.607212","long":139.736446},
{"名前":"ローソン","lat":35.561296","long":140.174413},
{"名前":"マクドナルド","lat":35.575719","long":140.168583},
{"名前":"下末吉小前","lat":35.522736","long":139.674091},
{"名前":"尻手","lat":35.531604","long":139.68574},
{"名前":"浦島小入口","lat":35.483457","long":139.639069},
{"名前":"浦島小入口","lat":35.483519","long":139.639034},
{"名前":"青木橋","lat":35.471103","long":139.626459},
{"名前":"青木橋","lat":35.471016","long":139.626384},
{"名前":"牛角","lat":35.547914","long":140.178197},
{"名前":"ファミリーマート","lat":35.54866","long":140.177242},
{"名前":"セブン-イレブン","lat":35.550794","long":140.175977},
{"名前":"エネオス","lat":35.311462","long":138.964344},
{"名前":"ドトールコーヒーショップ","lat":35.550236","long":140.172979},
{"名前":"吉野家","lat":35.546627","long":140.146286},
{"名前":"ローソン","lat":35.54542","long":140.144911},
{"名前":"マクドナルド","lat":35.546429","long":140.14545},
{"名前":"松原","lat":35.637901","long":139.574441},
{"名前":"田中橋","lat":35.63308","long":139.57248},
{"名前":"ココス","lat":35.550534","long":140.137655},
{"名前":"ロイヤルホスト","lat":35.551271","long":140.137541},
{"名前":"今川橋西詰","lat":35.646995","long":139.90896},
{"名前":"セブン-イレブン","lat":千葉蘇我町２丁目店","lat":35.570983","long":140.13136},
{"名前":"浦安","lat":35.641435","long":139.893089},
{"名前":"ミニストップ","lat":35.577253","long":140.130419},
{"名前":"ローソン","lat":35.588128","long":140.132217},
{"名前":"サンクス","lat":35.582591","long":140.137396},
{"名前":"曽根の坂","lat":35.794273","long":139.469122},
{"名前":"マクドナルド","lat":35.624885","long":139.343211},
{"名前":"成木一丁目","lat":35.837739","long":139.281052},
{"名前":"最戸橋","lat":35.412969","long":139.59711},
{"名前":"Pacific","lat":DRIVE-IN","lat":35.304456","long":139.51348},
{"名前":"ローソン","lat":35.83422","long":139.320813},
{"名前":"ローソン","lat":35.314762","long":138.963447},
{"名前":"マクドナルド","lat":35.31478","long":138.963264},
{"名前":"酒井前田","lat":35.416344","long":139.362151},
{"名前":"酒井前田","lat":35.416362","long":139.362238},
{"名前":"岡田","lat":35.416696","long":139.363941},
{"名前":"箕輪","lat":35.530202","long":139.319139},
{"名前":"マクドナルド","lat":35.446159","long":139.357898},
{"名前":"堀之内","lat":35.552416","long":139.333493},
{"名前":"セブン-イレブン","lat":35.857573","long":139.322117},
{"名前":"セブン-イレブン","lat":35.86896","long":139.246741},
{"名前":"豊洲駅前","lat":35.654691","long":139.796563},
{"名前":"根岸橋","lat":35.422462","long":139.624516},
{"名前":"根岸橋","lat":35.422463","long":139.624593},
{"名前":"港郵便局前","lat":35.446829","long":139.642677},
{"名前":"港の見える丘公園前","lat":35.439881","long":139.653846},
{"名前":"諏訪町","lat":35.437403","long":139.653867},
{"名前":"近代文学館入口","lat":35.438342","long":139.654754},
{"名前":"妙香寺前","lat":35.433268","long":139.651582},
{"名前":"キリン園公園入口","lat":35.433515","long":139.652354},
{"名前":"北方小学校前","lat":35.436662","long":139.653423},
{"名前":"野毛3丁目","lat":35.447848","long":139.628738},
{"名前":"長者町五丁目","lat":35.442267","long":139.631421},
{"名前":"西平沼","lat":35.456859","long":139.61801},
{"名前":"西平沼","lat":35.456782","long":139.618121},
{"名前":"御所山","lat":35.45518","long":139.619122},
{"名前":"野毛坂","lat":35.448175","long":139.626978},
{"名前":"高尾駅前","lat":35.642862","long":139.281462},
{"名前":"セブン-イレブン","lat":35.61774","long":139.183846},
{"名前":"ファミリーマート","lat":35.615925","long":139.156748},
{"名前":"エネオス","lat":35.629655","long":139.046775},
{"名前":"モスバーガー","lat":35.616177","long":139.158108},
{"名前":"八王子JCT","lat":35.640858","long":139.24762},
{"名前":"向町二","lat":35.646165","long":138.612327},
{"名前":"向町二","lat":35.646254","long":138.612346},
{"名前":"石和橋西","lat":35.643769","long":138.633368},
{"名前":"横根跨線橋南","lat":35.653963","long":138.613916},
{"名前":"ファミリーマート","lat":35.646256","long":138.634885},
{"名前":"マクドナルド","lat":35.644167","long":138.633572},
{"名前":"所沢北高北","lat":35.813578","long":139.462005},
{"名前":"花園","lat":35.813843","long":139.459303},
{"名前":"御殿峠","lat":35.621255","long":139.341042},
{"名前":"遣水北","lat":35.615609","long":139.341364},
{"名前":"大田平橋東","lat":35.624671","long":139.377816},
{"名前":"殿ヶ谷戸","lat":35.629825","long":139.379321},
{"名前":"すき家","lat":35.62828","long":139.391925},
{"名前":"八王子堀之内東","lat":35.631125","long":139.403569},
{"名前":"殿田橋","lat":35.643553","long":139.430376},
{"名前":"松ケ谷トンネル西","lat":35.627626","long":139.406301},
{"名前":"青果市場前","lat":35.675875","long":139.445807},
{"名前":"多摩森林科学園前","lat":35.646579","long":139.279935},
{"名前":"東京サマーランド前","lat":35.715112","long":139.284147},
{"名前":"ローソン","lat":35.735125","long":139.290385},
{"名前":"友田","lat":35.771216","long":139.292106},
{"名前":"ファミリーマート","lat":35.775543","long":139.280356},
{"名前":"長淵七丁目","lat":35.782426","long":139.263816},
{"名前":"住江町","lat":35.788709","long":139.261897},
{"名前":"千ヶ瀬五丁目","lat":35.78648","long":139.26489},
{"名前":"武蔵五日市駅入口","lat":35.731617","long":139.228372},
{"名前":"ファミリーマート","lat":35.693971","long":139.27888},
{"名前":"楢原町","lat":35.683833","long":139.30312},
{"名前":"セブン-イレブン","lat":35.672311","long":139.331525},
{"名前":"八王子消防署北","lat":35.66223","long":139.329207},
{"名前":"Shibuya","lat":ekimae","lat":35.659483","long":139.700542},
{"名前":"セブン-イレブン","lat":35.85401","long":139.330297},
{"名前":"ローソン","lat":35.854922","long":139.330846},
{"名前":"花咲町二丁目","lat":35.449918","long":139.630486},
{"名前":"長者町七丁目","lat":35.443339","long":139.630206},
{"名前":"原乃橋東","lat":35.375593","long":139.567465},
{"名前":"原乃橋西","lat":35.375981","long":139.567047},
{"名前":"笠間","lat":35.361709","long":139.541298},
{"名前":"大東橋","lat":35.354273","long":139.532205},
{"名前":"港南橋","lat":35.400658","long":139.589859},
{"名前":"曙町二丁目北","lat":35.441192","long":139.629789},
{"名前":"県庁前","lat":35.447336","long":139.64162},
{"名前":"港郵便局前","lat":35.446749","long":139.642614},
{"名前":"大さん橋入口","lat":35.446118","long":139.643722},
{"名前":"羽衣町","lat":35.44487","long":139.634847},
{"名前":"市庁舎前","lat":35.444066","long":139.63888},
{"名前":"大江橋","lat":35.448214","long":139.632993},
{"名前":"常磐町三丁目","lat":35.446283","long":139.636238},
{"名前":"本町一丁目","lat":35.447941","long":139.640465},
{"名前":"本町一丁目","lat":35.448022","long":139.640515},
{"名前":"南仲通三丁目","lat":35.448565","long":139.637967},
{"名前":"弁天通三丁目","lat":35.448118","long":139.637632},
{"名前":"中村橋","lat":35.430761","long":139.620601},
{"名前":"睦橋","lat":35.433361","long":139.619432},
{"名前":"睦橋","lat":35.433379","long":139.619336},
{"名前":"磯子警察署前","lat":35.412878","long":139.624094},
{"名前":"睦町一丁目","lat":35.431176","long":139.620416},
{"名前":"睦町一丁目","lat":35.431154","long":139.620336},
{"名前":"神明橋","lat":35.618345","long":139.363464},
{"名前":"宝蔵橋","lat":35.648993","long":139.437068},
{"名前":"大国魂神社西","lat":35.668202","long":139.477105},
{"名前":"府中市役所前","lat":35.669942","long":139.47683},
{"名前":"晴見町二丁目","lat":35.678333","long":139.473197},
{"名前":"是政橋北","lat":35.655563","long":139.487721},
{"名前":"南多摩水再生センター東","lat":35.647021","long":139.480707},
{"名前":"南多摩水再生センター入口","lat":35.646308","long":139.478798},
{"名前":"クリーンセンター多摩川入口","lat":35.646347","long":139.474989},
{"名前":"連光寺坂上","lat":35.640645","long":139.465126},
{"名前":"連光寺坂上","lat":35.640734","long":139.465112},
{"名前":"聖蹟記念館","lat":35.638781","long":139.463728},
{"名前":"稲城台病院入口","lat":35.624007","long":139.466241},
{"名前":"若葉台小学校南","lat":35.625251","long":139.469081},
{"名前":"若葉台小学校南","lat":35.625249","long":139.469183},
{"名前":"若葉台駅前","lat":35.620762","long":139.471958},
{"名前":"若葉台駅前","lat":35.620687","long":139.47195},
{"名前":"若葉台駅東","lat":35.62079","long":139.474756},
{"名前":"マクドナルド","lat":35.619208","long":139.467553},
{"名前":"若葉台駅南","lat":35.618217","long":139.473475},
{"名前":"若葉台駅入口","lat":35.61939","long":139.474599},
{"名前":"若葉台駅西","lat":35.621236","long":139.469908},
{"名前":"若葉台駅西","lat":35.621276","long":139.469994},
{"名前":"若葉台駅西","lat":35.621237","long":139.470039},
{"名前":"若葉台駅西","lat":35.621186","long":139.469961},
{"名前":"馬引沢第三公園","lat":35.627948","long":139.455564},
{"名前":"諏訪下橋","lat":35.636001","long":139.448533},
{"名前":"多摩馬引沢","lat":35.633655","long":139.451698},
{"名前":"馬引沢第三公園","lat":35.627998","long":139.455663},
{"名前":"多摩東公園","lat":35.62604","long":139.46219},
{"名前":"聖蹟桜ヶ丘駅前","lat":35.650184","long":139.446545},
{"名前":"一ノ宮","lat":35.651611","long":139.437715},
{"名前":"睦橋南側","lat":35.432625","long":139.619746},
{"名前":"睦橋南側","lat":35.432671","long":139.619631},
{"名前":"吉野橋","lat":35.434415","long":139.615524},