{
  "postLocationList":[
    {"名前": "ヲ村熊", "latitude": 34.112, "longitude": 130.96},
    {"名前": "み松熊", "latitude": 34.113, "longitude": 130.93},
    {"名前": "う別熊", "latitude": 44.74, "longitude": 142.413},
    {"名前": "や田熊", "latitude": 45.883, "longitude": 142.97},
    {"名前": "ゆ森熊", "latitude": 42.881, "longitude": 141.71},
    {"名前": "ビヶ熊", "latitude": 37.919, "longitude": 140.73},
    {"名前": "バ山熊", "latitude": 38.09, "longitude": 141.883},
    {"名前": "プ志熊", "latitude": 37.021, "longitude": 141.06},
    {"名前": "ボ牧熊", "latitude": 36.76, "longitude": 137.93},
    {"名前": "ピ高熊", "latitude": 44.04, "longitude": 143.412},
    {"名前": "ポ門熊", "latitude": 36.74, "longitude": 139.92},
    {"名前": "マ町熊", "latitude": 37.916, "longitude": 140.73},
    {"名前": "ミ通熊", "latitude": 35.72, "longitude": 134.78},
    {"名前": "ペ川熊", "latitude": 45.03, "longitude": 143.887},
    {"名前": "ヤヶ熊", "latitude": 37.414, "longitude": 141.919},
    {"名前": "ク田熊", "latitude": 41.911, "longitude": 141.021},
    {"名前": "ゲ屋熊", "latitude": 32.87, "longitude": 131.84},
    {"名前": "ゴ田熊", "latitude": 34.025, "longitude": 132.115},
    {"名前": "ガ目熊", "latitude": 39.74, "longitude": 141.93},
    {"名前": "ス平熊", "latitude": 44.881, "longitude": 142.82},
    {"名前": "ザ馬熊", "latitude": 37.93, "longitude": 139.97},
    {"名前": "テ別熊", "latitude": 34.78, "longitude": 132.119},
    {"名前": "チ都熊", "latitude": 36.411, "longitude": 136.76},
    {"名前": "ツ珠熊", "latitude": 44.61, "longitude": 142.888},
    {"名前": "ダ間熊", "latitude": 37.884, "longitude": 140.110},
    {"名前": "ッ基熊", "latitude": 35.73, "longitude": 133.416},
    {"名前": "ヅ山熊", "latitude": 36.71, "longitude": 140.63},
    {"名前": "デ渡熊", "latitude": 39.417, "longitude": 139.885},
    {"名前": "ナ更熊", "latitude": 36.89, "longitude": 140.92},
    {"名前": "ニ飛熊", "latitude": 42.76, "longitude": 141.885},
    {"名前": "ぴ座熊", "latitude": 27.63, "longitude": 128.72},
    {"名前": "ヒ中熊", "latitude": 37.917, "longitude": 140.410},
    {"名前": "み田熊", "latitude": 35.80006, "longitude": 133.410004},
    {"名前": "ぽ形熊", "latitude": 39.70004, "longitude": 141.880004},
    {"名前": "む美熊", "latitude": 29.90004, "longitude": 130.410009},
    {"名前": "や岡熊", "latitude": 39.410004, "longitude": 141.70008},
    {"名前": "ら浦熊", "latitude": 37.410005, "longitude": 141.020003},
    {"名前": "り太熊", "latitude": 35.90009, "longitude": 136.110004},
    {"名前": "れ井熊", "latitude": 36.70009, "longitude": 140.60005},
    {"名前": "ゃ保熊", "latitude": 37.01, "longitude": 134.020003},
    {"名前": "か戸熊", "latitude": 36.02, "longitude": 136.020009},
    {"名前": "ゥ茂熊", "latitude": 41.110001, "longitude": 140.70008},
    {"名前": "ェ奈熊", "latitude": 36.90006, "longitude": 140.60001},
    {"名前": "ムヶ熊", "latitude": 37.020006, "longitude": 136.020001},
    {"名前": "モ縄熊", "latitude": 27.60002, "longitude": 128.60008},
    {"名前": "ュ日熊", "latitude": 37.410003, "longitude": 141.910008},
    {"名前": "ョ立熊", "latitude": 37.02, "longitude": 140.110003},
    {"名前": "ャ内熊", "latitude": 46.90004, "longitude": 142.60005},
    {"名前": "ユ潟熊", "latitude": 39.110002, "longitude": 140.06},
    {"名前": "ル田熊", "latitude": 41.02, "longitude": 142.90005},
    {"名前": "レ城熊", "latitude": 39.70006, "longitude": 141.90001},
    {"名前": "あ連熊", "latitude": 27.08, "longitude": 128.90001},
    {"名前": "ヲ島熊", "latitude": 39.90001, "longitude": 142.020002},
    {"名前": "ン富熊", "latitude": 44.90005, "longitude": 143.110007},
    {"名前": "ぅ松熊", "latitude": 35.05, "longitude": 135.60003},
    {"名前": "え更熊", "latitude": 36.90001, "longitude": 140.90003},
    {"名前": "お府熊", "latitude": 35.410003, "longitude": 132.410005},
    {"名前": "ぇ寄熊", "latitude": 45.80009, "longitude": 143.110004},
    {"名前": "き僧熊", "latitude": 36.020008, "longitude": 136.110001},
    {"名前": "く江熊", "latitude": 37.110009, "longitude": 137.910007},
    {"名前": "か森熊", "latitude": 42.880002, "longitude": 141.70005},
    {"名前": "ろ平熊", "latitude": 37.020002, "longitude": 140.110009},
    {"名前": "れ浜熊", "latitude": 35.880009, "longitude": 136.09},
    {"名前": "わ覇熊", "latitude": 27.60009, "longitude": 128.60006},
    {"名前": "エ岡熊", "latitude": 35.04, "longitude": 131.110006},
    {"名前": "オ分熊", "latitude": 34.60008, "longitude": 132.60003},
    {"名前": "ァ更熊", "latitude": 36.80009, "longitude": 140.90002},
    {"名前": "ぺ園熊", "latitude": 36.020006, "longitude": 136.70007},
    {"名前": "ぽ神熊", "latitude": 34.60006, "longitude": 130.70001},
    {"名前": "い島熊", "latitude": 35.60003, "longitude": 136.60001},
    {"名前": "う連熊", "latitude": 27.08, "longitude": 128.90002},
    {"名前": "お山熊", "latitude": 36.07, "longitude": 137.90006},
    {"名前": "ぁ栖熊", "latitude": 34.80006, "longitude": 131.110008},
    {"名前": "き館熊", "latitude": 43.020007, "longitude": 141.70002},
    {"名前": "が谷熊", "latitude": 37.60006, "longitude": 140.880002},
    {"名前": "ぎ阜熊", "latitude": 36.90004, "longitude": 137.70007},
    {"名前": "ざ木熊", "latitude": 36.90005, "longitude": 140.110005},
    {"名前": "ご室熊", "latitude": 44.80002, "longitude": 146.60001},
    {"名前": "せ児熊", "latitude": 33.09, "longitude": 131.410007},
    {"名前": "そ栗熊", "latitude": 36.02, "longitude": 130.110004},
    {"名前": "す穂熊", "latitude": 44.410007, "longitude": 142.880009},
    {"名前": "レ滝熊", "latitude": 38.80006, "longitude": 141.70002},
    {"名前": "エ浦熊", "latitude": 36.70009, "longitude": 140.60004},
    {"名前": "ん浦熊", "latitude": 34.60007, "longitude": 130.70001},
    {"名前": "イ永熊", "latitude": 28.80006, "longitude": 129.410007},
    {"名前": "ウ米熊", "latitude": 27.80007, "longitude": 127.70006},
    {"名前": "ア老熊", "latitude": 44.01, "longitude": 142.880002},
    {"名前": "ェ黒熊", "latitude": 37.910004, "longitude": 140.70001},
    {"名前": "ォ浦熊", "latitude": 34.60007, "longitude": 130.60006},
    {"名前": "カ振熊", "latitude": 34.90002, "longitude": 131.880008},
    {"名前": "ゥ知熊", "latitude": 44.880007, "longitude": 141.70006},
    {"名前": "ガ塚熊", "latitude": 35.910008, "longitude": 131.60008},
    {"名前": "コ川熊", "latitude": 45.08, "longitude": 142.90001},
    {"名前": "ギ山熊", "latitude": 36.910002, "longitude": 137.020005},
    {"名前": "グ媛熊", "latitude": 35.880004, "longitude": 133.70006},
    {"名前": "サ里熊", "latitude": 36.70003, "longitude": 140.70001},
    {"名前": "シ久熊", "latitude": 36.880007, "longitude": 136.70008},
    {"名前": "ゴ井熊", "latitude": 37.70007, "longitude": 140.02},
    {"名前": "ソ川熊", "latitude": 34.70008, "longitude": 131.410006},
    {"名前": "ザ須熊", "latitude": 36.70008, "longitude": 140.60006},
    {"名前": "ゼ府熊", "latitude": 34.70009, "longitude": 132.110006},
    {"名前": "ジ館熊", "latitude": 43.020007, "longitude": 141.70007},
    {"名前": "チ戸熊", "latitude": 37.020008, "longitude": 140.90008},
    {"名前": "ツ城熊", "latitude": 33.020002, "longitude": 132.04},
    {"名前": "ヂ鳥熊", "latitude": 25.70008, "longitude": 154.90008},
    {"名前": "ゾ庭熊", "latitude": 36.80008, "longitude": 137.02},
    {"名前": "テ瀬熊", "latitude": 34.60007, "longitude": 130.70001},
    {"名前": "ダ良熊", "latitude": 34.70007, "longitude": 131.410003},
    {"名前": "タ山熊", "latitude": 38.02, "longitude": 138.020002},
    {"名前": "ヅ府熊", "latitude": 35.410002, "longitude": 132.410004},
    {"名前": "ド賀熊", "latitude": 36.05, "longitude": 136.80008},
    {"名前": "ッ町熊", "latitude": 39.80009, "longitude": 142.05},
    {"名前": "ネ国熊", "latitude": 35.60005, "longitude": 133.020003},
    {"名前": "ヌ黄熊", "latitude": 26.020008, "longitude": 142.880003},
    {"名前": "ビ浜熊", "latitude": 36.90007, "longitude": 140.60001},
    {"名前": "ブ知熊", "latitude": 35.04, "longitude": 134.70004},
    {"名前": "ヘ駒熊", "latitude": 44.410001, "longitude": 142.880006},
    {"名前": "ホ賀熊", "latitude": 39.70009, "longitude": 142.03},
    {"名前": "バ島熊", "latitude": 39.020001, "longitude": 141.880009},
    {"名前": "ペ本熊", "latitude": 36.60001, "longitude": 135.910006},
    {"名前": "ピ城熊", "latitude": 37.80007, "longitude": 141.110009},
    {"名前": "プ軽熊", "latitude": 45.410005, "longitude": 144.410005},
    {"名前": "ム軒熊", "latitude": 36.02, "longitude": 134.90003},
    {"名前": "マ尻熊", "latitude": 43.60006, "longitude": 140.110005},
    {"名前": "ミ文熊", "latitude": 45.03, "longitude": 143.880003},
    {"名前": "ユ賀熊", "latitude": 37.910003, "longitude": 140.60004},
    {"名前": "リ野熊", "latitude": 35.880007, "longitude": 131.90002},
    {"名前": "ロ用熊", "latitude": 37.910003, "longitude": 140.60004},
    {"名前": "ラ和熊", "latitude": 39.90005, "longitude": 141.80008},
    {"名前": "ぁ川熊", "latitude": 27.80006, "longitude": 128.80001},
    {"名前": "お歳熊", "latitude": 44.880001, "longitude": 142.60006},
    {"名前": "あ屋熊", "latitude": 35.880008, "longitude": 131.60006},
    {"名前": "う歌熊", "latitude": 35.70002, "longitude": 136.910006},
    {"名前": "ぅ江熊", "latitude": 34.020006, "longitude": 129.60007},
    {"名前": "ぎ阜熊", "latitude": 36.80009, "longitude": 137.80005},
    {"名前": "ぐ町熊", "latitude": 37.910006, "longitude": 140.70003},
    {"名前": "が幌熊", "latitude": 44.410006, "longitude": 142.880004},
    {"名前": "げ蔵熊", "latitude": 36.70007, "longitude": 138.06},
    {"名前": "ご納熊", "latitude": 27.90007, "longitude": 128.80004},
    {"名前": "さ阜熊", "latitude": 36.80009, "longitude": 137.80007},
    {"名前": "し城熊", "latitude": 35.910007, "longitude": 132.04},
    {"名前": "そ覇熊", "latitude": 27.90002, "longitude": 128.60006},
    {"名前": "ぞ発熊", "latitude": 39.110005, "longitude": 140.880003},
    {"名前": "ち黒熊", "latitude": 37.910004, "longitude": 140.70001},
    {"名前": "ぜ山熊", "latitude": 35.410004, "longitude": 132.80001},
    {"名前": "づ覇熊", "latitude": 27.07, "longitude": 128.60006},
    {"名前": "ぢ田熊", "latitude": 35.70004, "longitude": 133.110008},
    {"名前": "と本熊", "latitude": 34.020009, "longitude": 131.60008},
    {"名前": "ね府熊", "latitude": 35.410004, "longitude": 132.410005},
    {"名前": "に戸熊", "latitude": 42.04, "longitude": 142.110007},
    {"名前": "な志熊", "latitude": 37.020001, "longitude": 141.06},
    {"名前": "ぬ恵熊", "latitude": 44.880009, "longitude": 142.410006},
    {"名前": "ひ日熊", "latitude": 35.03, "longitude": 131.110007},
    {"名前": "ばヶ熊", "latitude": 36.80002, "longitude": 139.80008},
    {"名前": "び口熊", "latitude": 35.690001, "longitude": 132.1190001},
    {"名前": "へ葉熊", "latitude": 37.9120001, "longitude": 141.9110001},
    {"名前": "ほ千熊", "latitude": 44.8820001, "longitude": 142.630001},
    {"名前": "め尾熊", "latitude": 36.010001, "longitude": 136.610001},
    {"名前": "も山熊", "latitude": 36.1180001, "longitude": 140.840001},
    {"名前": "み阪熊", "latitude": 36.9180001, "longitude": 136.4120001},
    {"名前": "ら伯熊", "latitude": 34.1170001, "longitude": 132.920001},
    {"名前": "ゃ良熊", "latitude": 36.020001, "longitude": 136.810001},
    {"名前": "ゅ井熊", "latitude": 37.4170001, "longitude": 137.0230001},
    {"名前": "ち軍熊", "latitude": 34.0290001, "longitude": 131.770001},
    {"名前": "つ内熊", "latitude": 33.030001, "longitude": 131.880001},
    {"名前": "て念熊", "latitude": 27.660001, "longitude": 128.810001},
    {"名前": "ぢ越熊", "latitude": 36.080001, "longitude": 140.640001},
    {"名前": "と関熊", "latitude": 35.4160001, "longitude": 131.890001},
    {"名前": "ぞ山熊", "latitude": 36.9160001, "longitude": 134.920001},
    {"名前": "た別熊", "latitude": 43.090001, "longitude": 142.090001},
    {"名前": "づ志熊", "latitude": 37.9150001, "longitude": 141.9150001},
    {"名前": "は日熊", "latitude": 36.780001, "longitude": 137.980001},
    {"名前": "っ川熊", "latitude": 38.060001, "longitude": 137.630001},
    {"名前": "な良熊", "latitude": 36.9170001, "longitude": 136.840001},
    {"名前": "の寄熊", "latitude": 44.750001, "longitude": 144.60001},
    {"名前": "へ松熊", "latitude": 36.0240001, "longitude": 138.70001},
    {"名前": "ほ島熊", "latitude": 39.0240001, "longitude": 141.1160001},
    {"名前": "ば重熊", "latitude": 36.0220001, "longitude": 137.4120001},
    {"名前": "べ馬熊", "latitude": 37.0260001, "longitude": 140.660001},
    {"名前": "み留熊", "latitude": 34.790001, "longitude": 131.4150001},
    {"名前": "む与熊", "latitude": 27.610001, "longitude": 128.710001},
    {"名前": "ゅ居熊", "latitude": 36.9170001, "longitude": 137.1180001},
    {"名前": "ゆ裳熊", "latitude": 43.1160001, "longitude": 144.0230001},
    {"名前": "よ崎熊", "latitude": 33.8880001, "longitude": 132.1140001},
    {"名前": "ゃ文熊", "latitude": 46.930001, "longitude": 142.060001},
    {"名前": "じ内熊", "latitude": 46.940001, "longitude": 142.650001},
    {"名前": "らヶ熊", "latitude": 37.4140001, "longitude": 141.9190001},
    {"名前": "ず知熊", "latitude": 36.650001, "longitude": 137.90001},
    {"名前": "ぜ口熊", "latitude": 35.680001, "longitude": 132.1190001},
    {"名前": "た田熊", "latitude": 44.940001, "longitude": 143.4160001},
    {"名前": "つ尾熊", "latitude": 37.060001, "longitude": 134.0240001},
    {"名前": "ぢ美熊", "latitude": 29.930001, "longitude": 130.710001},
    {"名前": "と路熊", "latitude": 44.4110001, "longitude": 145.1160001},
    {"名前": "だ前熊", "latitude": 42.060001, "longitude": 141.1170001},
    {"名前": "っ治熊", "latitude": 36.1110001, "longitude": 136.80001},
    {"名前": "で浜熊", "latitude": 36.8810001, "longitude": 139.0290001},
    {"名前": "な世熊", "latitude": 34.1120001, "longitude": 131.9150001},
    {"名前": "に座熊", "latitude": 27.620001, "longitude": 128.70001},
    {"名前": "ど追熊", "latitude": 44.640001, "longitude": 144.01},
    {"名前": "ね間熊", "latitude": 36.990001, "longitude": 140.110001},
    {"名前": "の富熊", "latitude": 36.950001, "longitude": 139.830001},
    {"名前": "ひ妻熊", "latitude": 36.790001, "longitude": 139.90001},
    {"名前": "ふ川熊", "latitude": 37.020001, "longitude": 140.110001},
    {"名前": "へ山熊", "latitude": 35.030001, "longitude": 133.850001},
    {"名前": "ら霞熊", "latitude": 37.0280001, "longitude": 140.60001},
    {"名前": "り士熊", "latitude": 36.850001, "longitude": 139.870001},
    {"名前": "る馬熊", "latitude": 35.080001, "longitude": 130.8810001},
    {"名前": "ゅ知熊", "latitude": 35.070001, "longitude": 134.4150001},
    {"名前": "ょ松熊", "latitude": 44.1110001, "longitude": 142.4160001},
    {"名前": "ろ島熊", "latitude": 36.0270001, "longitude": 132.9140001},
    {"名前": "わ内熊", "latitude": 46.940001, "longitude": 142.650001},
    {"名前": "ィ田熊", "latitude": 37.880001, "longitude": 141.4130001},
    {"名前": "ァ館熊", "latitude": 43.0280001, "longitude": 141.770001},
    {"名前": "カ市熊", "latitude": 44.710001, "longitude": 141.780001},
    {"名前": "ゥ走熊", "latitude": 45.4180001, "longitude": 145.0230001},
    {"名前": "ェ川熊", "latitude": 37.020001, "longitude": 140.1130001},
    {"名前": "ォ岡熊", "latitude": 36.610001, "longitude": 140.990001},
    {"名前": "キ来熊", "latitude": 44.0280001, "longitude": 142.820001},
    {"名前": "ギ山熊", "latitude": 36.710001, "longitude": 140.630001},
    {"名前": "グ本熊", "latitude": 34.0280001, "longitude": 131.770001},
    {"名前": "る河熊", "latitude": 37.680001, "longitude": 140.730001},
    {"名前": "わ沼熊", "latitude": 44.050001, "longitude": 142.740001},
    {"名前": "ろ岡熊", "latitude": 35.070001, "longitude": 131.8890001},
    {"名前": "ア広熊", "latitude": 44.1110001, "longitude": 144.9190001},
    {"名前": "イ野熊", "latitude": 38.9150001, "longitude": 139.9190001},
    {"名前": "ウ念熊", "latitude": 27.660001, "longitude": 128.790001},
    {"名前": "オ達熊", "latitude": 34.820001, "longitude": 131.1110001},
    {"名前": "エ岡熊", "latitude": 36.1180001, "longitude": 139.1110001},
    {"名前": "ェ子熊", "latitude": 36.950001, "longitude": 140.8830001},
    {"名前": "ゥ鶴熊", "latitude": 36.970001, "longitude": 136.8890001},
    {"名前": "ロ津熊", "latitude": 36.4130001, "longitude": 136.870001},
    {"名前": "コ湊熊", "latitude": 42.730001, "longitude": 142.9140001},
    {"名前": "ガ台熊", "latitude": 39.760001, "longitude": 141.920001},
    {"名前": "え野熊", "latitude": 36.030001, "longitude": 137.670001},
    {"名前": "い千熊", "latitude": 44.8830001, "longitude": 142.730001},
    {"名前": "う平熊", "latitude": 44.4130001, "longitude": 142.8870001},
    {"名前": "ぃ布熊", "latitude": 34.750001, "longitude": 132.8860001},
    {"名前": "ぁ幌熊", "latitude": 44.4120001, "longitude": 142.8850001},
    {"名前": "き宇熊", "latitude": 38.010001, "longitude": 140.880001},
    {"名前": "け幌熊", "latitude": 28.4190001, "longitude": 143.0210001},
    {"名前": "す珠熊", "latitude": 34.790001, "longitude": 132.9150001},
    {"名前": "げ賀熊", "latitude": 34.750001, "longitude": 131.0280001},
    {"名前": "し町熊", "latitude": 39.090001, "longitude": 141.110001},
    {"名前": "じび熊", "latitude": 33.4140001, "longitude": 131.920001},
    {"名前": "ざ前熊", "latitude": 42.920001, "longitude": 141.090001}
  ]
}
