{"postLocationList":[
{"名前":"山でん","lat":35.736721,"long":139.4868503},
{"名前":"山の神","lat":35.632508,"long":139.0095117},
{"名前":"山ヶ谷戸","lat":35.982638,"long":139.5012495},
{"名前":"山上駅","lat":35.632485,"long":139.2576734},
{"名前":"山下","lat":35.653808,"long":139.6465083},
{"名前":"山下","lat":35.653830,"long":139.6464930},
{"名前":"山下","lat":35.653831,"long":139.6465322},
{"名前":"山下町","lat":35.444623,"long":139.6469797},
{"名前":"山下町","lat":35.444679,"long":139.6470190},
{"名前":"山下町消防出張所前","lat":35.445692,"long":139.6445390},
{"名前":"山下町消防出張所前","lat":35.445748,"long":139.6445844},
{"名前":"山中城祉","lat":35.480279,"long":139.3323858},
{"名前":"山中城祉","lat":35.480380,"long":139.3324372},
{"名前":"山中湖情報創造館","lat":35.407144,"long":138.8689326},
{"名前":"山中湖村","lat":35.405929,"long":138.8664400},
{"名前":"山中湖村営キャンプ場","lat":35.404327,"long":138.8690145},
{"名前":"山中湖村役場前","lat":35.410772,"long":138.8619986},
{"名前":"山中湖村役場前","lat":35.410867,"long":138.8621485},
{"名前":"山中湖郵便局","lat":35.420300,"long":138.8496680},
{"名前":"山中湖ＩＣ","lat":35.435038,"long":138.8295217},
{"名前":"山仁病院","lat":35.923506,"long":139.4779211},
{"名前":"山内中学校","lat":35.573604,"long":139.5501526},
{"名前":"山内中学校","lat":35.573908,"long":139.5502567},
{"名前":"山内地区センター前","lat":35.567219,"long":139.5540054},
{"名前":"山内小学校","lat":35.567765,"long":139.5563261},
{"名前":"山内小学校","lat":35.568244,"long":139.5554691},
{"名前":"山内農場","lat":35.507926,"long":139.4455158},
{"名前":"山内農場","lat":35.703753,"long":139.9858172},
{"名前":"山内農場","lat":35.705109,"long":139.6504380},
{"名前":"山内農場","lat":35.893840,"long":139.9535107},
{"名前":"山利屋","lat":35.704105,"long":139.5786827},
{"名前":"山北","lat":35.360769,"long":139.0803209},
{"名前":"山北町","lat":35.424821,"long":139.0424330},
{"名前":"山口台中央","lat":35.594950,"long":139.5053555},
{"名前":"山口台中央","lat":35.595185,"long":139.5061519},
{"名前":"山口台中央","lat":35.595759,"long":139.5059578},
{"名前":"山口山荘","lat":35.348580,"long":138.7356984},
{"名前":"山口病院","lat":35.709979,"long":139.9555806},
{"名前":"山口輪業","lat":35.781920,"long":139.9153019},
{"名前":"山家","lat":35.708662,"long":139.7738323},
{"名前":"山小屋","lat":35.665697,"long":140.0135811},
{"名前":"山崎","lat":36.014888,"long":139.7189572},
{"名前":"山崎中学校前","lat":35.578099,"long":139.4329271},
{"名前":"山崎伊久江美容室","lat":35.660781,"long":139.7021197},
{"名前":"山崎内科","lat":35.615190,"long":140.0991300},
{"名前":"山崎内科外科クリニック","lat":35.715591,"long":139.9752800},
{"名前":"山崎商店","lat":35.694600,"long":139.9925300},
{"名前":"山崎商店","lat":35.929534,"long":139.8182900},
{"名前":"山崎団地センター","lat":35.567786,"long":139.4363441},
{"名前":"山崎団地入口","lat":35.567630,"long":139.4322190},
{"名前":"山崎団地東","lat":35.568790,"long":139.4373608},
{"名前":"山崎接骨院","lat":35.692403,"long":139.9954536},
{"名前":"山崎記念中野区立歴史民俗資料館","lat":35.724316,"long":139.6649920},
{"名前":"山崎高校南","lat":35.575400,"long":139.4336325},
{"名前":"山川皮ふ科","lat":35.491605,"long":139.6451995},
{"名前":"山手","lat":35.427346,"long":139.6462286},
{"名前":"山手みどり公園","lat":35.715242,"long":139.9746423},
{"名前":"山手キリスト教会","lat":35.716979,"long":139.9783100},
{"名前":"山手三丁目","lat":35.715961,"long":139.9774636},
{"名前":"山手三丁目","lat":35.717377,"long":139.9748700},
{"名前":"山手三丁目","lat":35.717546,"long":139.9748100},
{"名前":"山手二丁目","lat":35.713371,"long":139.9731300},
{"名前":"山手二丁目","lat":35.713410,"long":139.9733100},
{"名前":"山手二丁目","lat":35.714001,"long":139.9744599},
{"名前":"山手保育遊園","lat":35.712427,"long":139.9741996},
{"名前":"山手公園入口","lat":35.433944,"long":139.6469514},
{"名前":"山手動物病院","lat":35.591038,"long":139.7264309},
{"名前":"山手警察署前","lat":35.429223,"long":139.6636830},
{"名前":"山手通り中丸","lat":35.739363,"long":139.7054944},
{"名前":"山手通り中丸","lat":35.739500,"long":139.7051917},
{"名前":"山手駅入口","lat":35.432486,"long":139.6494523},
{"名前":"山新ホームセンター龍ケ崎店","lat":35.930646,"long":140.2047721},
{"名前":"山本亭","lat":35.758010,"long":139.8801077},
{"名前":"山本医院","lat":35.716466,"long":140.1106900},
{"名前":"山本商店","lat":35.667149,"long":139.3580794},
{"名前":"山本書店","lat":35.764481,"long":139.7246376},
{"名前":"山本歯科","lat":35.604048,"long":139.6519465},
{"名前":"山根橋北","lat":35.576386,"long":139.4089224},
{"名前":"山梨トヨタ","lat":35.653387,"long":138.5456057},
{"名前":"山梨トヨペット","lat":35.576897,"long":138.9322780},
{"名前":"山梨中央銀行","lat":35.418491,"long":138.8548880},
{"名前":"山梨中央銀行","lat":35.573891,"long":138.9281470},
{"名前":"山梨中央銀行","lat":35.652868,"long":138.5555658},
{"名前":"山梨中央銀行","lat":35.653489,"long":138.5792509},
{"名前":"山梨中央銀行","lat":35.660057,"long":138.5782058},
{"名前":"山梨中央銀行","lat":35.661720,"long":138.5698350},
{"名前":"山梨中央銀行","lat":35.718674,"long":138.4518999},
{"名前":"山梨中央銀行","lat":35.760413,"long":139.3187950},
{"名前":"山梨信用金庫","lat":35.484286,"long":138.7956393},
{"名前":"山梨信用金庫","lat":35.555667,"long":138.9097086},
{"名前":"山梨信用金庫","lat":35.607699,"long":138.4671369},
{"名前":"山梨信用金庫","lat":35.608583,"long":139.0045830},
{"名前":"山梨信用金庫","lat":35.612206,"long":138.9436490},
{"名前":"山梨信用金庫","lat":35.635683,"long":138.5505363},
{"名前":"山梨信用金庫","lat":35.649016,"long":138.5577359},
{"名前":"山梨信用金庫","lat":35.650838,"long":138.5339898},
{"名前":"山梨信用金庫","lat":35.658929,"long":138.5911059},
{"名前":"山梨信用金庫","lat":35.659493,"long":138.5685664},
{"名前":"山梨信用金庫","lat":35.668686,"long":138.5423323},
{"名前":"山梨信用金庫","lat":35.677447,"long":138.5531775},
{"名前":"山梨信用金庫","lat":35.690575,"long":138.6854661},
{"名前":"山梨信用金庫","lat":35.705381,"long":138.4528573},
{"名前":"山梨宝石博物館","lat":35.505960,"long":138.7633322},
{"名前":"山梨市","lat":35.803415,"long":138.6972200},
{"名前":"山梨市役所","lat":35.693399,"long":138.6871631},
{"名前":"山梨県","lat":35.639932,"long":138.6380495},
{"名前":"山梨県桂川流域下水道事務所","lat":35.603961,"long":139.0514420},
{"名前":"山梨県立リニア見学センター","lat":35.582858,"long":138.9273813},
{"名前":"山梨郵便局","lat":35.694769,"long":138.6870360},
{"名前":"山森","lat":35.490488,"long":139.6283652},
{"名前":"山水堂","lat":35.703893,"long":139.6656654},
{"名前":"山清酒店","lat":35.700451,"long":139.9872300},
{"名前":"山王三丁目","lat":35.584775,"long":139.7248874},
{"名前":"山王三丁目","lat":35.584877,"long":139.7249877},
{"名前":"山王三丁目","lat":35.585480,"long":139.7254327},
{"名前":"山王下二丁目","lat":35.627490,"long":139.4210246},
{"名前":"山王二丁目","lat":35.587003,"long":139.7266615},
{"名前":"山王二丁目","lat":35.591743,"long":139.7229169},
{"名前":"山王二丁目","lat":35.591863,"long":139.7229648},
{"名前":"山王交番前","lat":35.591145,"long":139.7265301},
{"名前":"山王前","lat":35.521337,"long":139.5618272},
{"名前":"山王南","lat":35.583614,"long":139.4566623},
{"名前":"山王原","lat":35.493208,"long":139.4627728},
{"名前":"山王原","lat":35.495582,"long":139.4606426},
{"名前":"山王原東","lat":35.493811,"long":139.4645818},
{"名前":"山王原東","lat":35.493818,"long":139.4644482},
{"名前":"山王口","lat":35.590613,"long":139.7283305},
{"名前":"山王塚","lat":35.899934,"long":139.4619147},
{"名前":"山王神社前","lat":35.591197,"long":139.3013547},
{"名前":"山田","lat":35.644365,"long":139.3210906},
{"名前":"山田うどん","lat":35.817619,"long":139.8951110},
{"名前":"山田うどん","lat":35.817781,"long":139.6056547},
{"名前":"山田うどん","lat":35.820012,"long":139.5903661},
{"名前":"山田うどん","lat":35.829586,"long":139.3752198},
{"名前":"山田うどん","lat":35.839975,"long":139.5930417},
{"名前":"山田八幡神社","lat":35.945865,"long":139.4817293},
{"名前":"山田商事","lat":35.330044,"long":139.1262036},
{"名前":"山田宅建","lat":35.764405,"long":139.7248933},
{"名前":"山田富士","lat":35.561338,"long":139.5901507},
{"名前":"山田富士","lat":35.561517,"long":139.5904800},
{"名前":"山田小学校","lat":35.560737,"long":139.6026888},
{"名前":"山田小学校","lat":35.561011,"long":139.6031213},
{"名前":"山田歯科医院","lat":35.763786,"long":139.6323706},
{"名前":"山田病院","lat":35.639239,"long":140.1010400},
{"名前":"山田紙店","lat":35.700596,"long":139.7424441},
{"名前":"山県神社北","lat":35.659557,"long":138.5233072},
{"名前":"山県神社北","lat":35.659615,"long":138.5233764},
{"名前":"山神社入口","lat":35.407964,"long":139.5149015},
{"名前":"山神社入口","lat":35.408035,"long":139.5149427},
{"名前":"山笠","lat":35.700846,"long":139.7421598},
{"名前":"山脇学園短期大学","lat":35.674751,"long":139.7331219},
{"名前":"山野小学校横","lat":35.644432,"long":139.6146160},
{"名前":"山野美容芸術短期大学","lat":35.620941,"long":139.3422587},
{"名前":"山際","lat":35.500502,"long":139.3618760},
{"名前":"山際","lat":35.500503,"long":139.3619772},
{"名前":"山頂","lat":35.359585,"long":138.7311955},
{"名前":"山麓駅","lat":35.631563,"long":139.2667963},
{"名前":"岡上駐在所前","lat":35.580284,"long":139.4852466},
{"名前":"岡入口","lat":35.279344,"long":139.2076093},
{"名前":"岡崎医院","lat":35.569203,"long":139.7177396},
{"名前":"岡本わきみず緑地","lat":35.624789,"long":139.6184703},
{"名前":"岡村製作所","lat":35.316135,"long":139.6393189},
{"名前":"岡沢上歯科","lat":35.464872,"long":139.5990342},
{"名前":"岡田","lat":35.416696,"long":139.3639410},
{"名前":"岡田保育園","lat":35.431041,"long":139.3630020},
{"名前":"岡田生花店","lat":35.697244,"long":139.9814151},
{"名前":"岡野","lat":35.463404,"long":139.6156023},
{"名前":"岡野","lat":35.463479,"long":139.6156725},
{"名前":"岡野公園","lat":35.462270,"long":139.6135365},
{"名前":"岩下内科医院","lat":35.711703,"long":138.4499530},
{"名前":"岩井堂","lat":35.833410,"long":139.2970629},
{"名前":"岩原","lat":35.299127,"long":139.1284897},
{"名前":"岩子山","lat":35.593896,"long":139.4558408},
{"名前":"岩屋大師","lat":35.628580,"long":139.2603074},
{"名前":"岩崎ガード","lat":35.445455,"long":139.5883696},
{"名前":"岩崎橋","lat":35.519076,"long":139.5810815},
{"名前":"岩崎歯科医院","lat":35.980855,"long":139.6508405},
{"名前":"岩崎生花店","lat":35.723197,"long":139.4608464},
{"名前":"岩本町","lat":35.694314,"long":139.7771974},
{"名前":"岩本町","lat":35.695520,"long":139.7753867},
{"名前":"岩本町","lat":35.695575,"long":139.7753775},
{"名前":"岩本町","lat":35.695599,"long":139.7753793},
{"名前":"岩本町","lat":35.695640,"long":139.7753968},
{"名前":"岩本町駅前","lat":35.695643,"long":139.7763809},
{"名前":"岩槻","lat":35.950151,"long":139.6930458},
{"名前":"岩槻","lat":35.950171,"long":139.6930315},
{"名前":"岩槻","lat":35.950184,"long":139.6930195},
{"名前":"岩槻区","lat":35.953833,"long":139.6997720},
{"名前":"岩槻区役所","lat":35.949757,"long":139.6941740},
{"名前":"岩殿","lat":36.001437,"long":139.3742715},
{"名前":"岩殿山","lat":35.620699,"long":138.9483748},
{"名前":"岩蔵温泉","lat":35.826323,"long":139.2896135},
{"名前":"岩蔵温泉郷","lat":35.825564,"long":139.2904807},
{"名前":"岩蔵街道","lat":35.779871,"long":139.3395698},
{"名前":"岩蔵街道","lat":35.779957,"long":139.3394975},
{"名前":"岬","lat":35.505278,"long":138.6935237},
{"名前":"岸根","lat":35.501843,"long":139.6087451},
{"名前":"岸根","lat":35.501963,"long":139.6085927},
{"名前":"岸根公園","lat":35.495043,"long":139.6163080},
{"名前":"岸根高校入口","lat":35.499145,"long":139.6120210},
{"名前":"岸記念体育館前","lat":35.666716,"long":139.7017834},
{"名前":"峠茶屋前","lat":35.572317,"long":139.5682010},
{"名前":"峯ケ谷戸橋南","lat":35.625509,"long":139.3954553},
{"名前":"峯ケ谷戸橋南","lat":35.625656,"long":139.3953962},
{"名前":"峰","lat":35.759092,"long":139.3775696},
{"名前":"峰","lat":35.759162,"long":139.3769329},
{"名前":"峰","lat":35.759255,"long":139.3774073},
{"名前":"峰坂","lat":35.527248,"long":139.6678564},
{"名前":"峰本","lat":35.319973,"long":139.5516525},
{"名前":"島ダイニング　潮彩","lat":35.700370,"long":139.7409877},
{"名前":"島屋","lat":35.800559,"long":139.9127731},
{"名前":"島崎整骨院","lat":35.713156,"long":139.9886000},
{"名前":"島忠","lat":35.337731,"long":139.4089512},
{"名前":"島忠","lat":35.550844,"long":139.6156387},
{"名前":"島忠","lat":35.569168,"long":139.6952029},
{"名前":"島忠","lat":35.675456,"long":139.4725200},
{"名前":"島忠","lat":35.771013,"long":139.6193855},
{"名前":"島忠","lat":35.779182,"long":139.8390951},
{"名前":"島忠","lat":35.988923,"long":139.7913140},
{"名前":"島忠ホームセンター","lat":35.705000,"long":139.6722431},
{"名前":"島村写真館","lat":35.697052,"long":139.9895590},
{"名前":"島村楽器","lat":35.777335,"long":139.7203540},
{"名前":"島根","lat":35.778506,"long":139.7976470},
{"名前":"島根","lat":35.778586,"long":139.7976503},
{"名前":"島田シャツ店","lat":35.719366,"long":139.7849255},
{"名前":"島田入口","lat":35.762495,"long":140.0911439},
{"名前":"島田入口","lat":35.762787,"long":140.0913375},
{"名前":"島田動物病院","lat":35.559567,"long":139.7168413},
{"名前":"島田台","lat":35.768403,"long":140.0972508},
{"名前":"島田台","lat":35.768405,"long":140.0970034},
{"名前":"島田台病院","lat":35.769242,"long":140.0991658},
{"名前":"島田台病院","lat":35.769273,"long":140.0995781},
{"名前":"島田療育センター入口","lat":35.624815,"long":139.4177670},
{"名前":"島田療育センター入口","lat":35.624837,"long":139.4178951},
{"名前":"島田療育センター入口","lat":35.625022,"long":139.4178602},
{"名前":"島田製作所","lat":35.745589,"long":139.7656436},
{"名前":"島田郵便局","lat":35.618761,"long":139.1179090},
{"名前":"崇文荘書店","lat":35.695051,"long":139.7616171},
{"名前":"嵐山","lat":35.611609,"long":139.1986821},
{"名前":"嶮山スポーツガーデン前","lat":35.572788,"long":139.5330824},
{"名前":"嶮山スポーツガーデン前","lat":35.572882,"long":139.5330638},
{"名前":"嶽の内","lat":35.562176,"long":139.4104050},
{"名前":"嶽之内児童館前","lat":35.559493,"long":139.4100895},
{"名前":"巌川橋","lat":35.577513,"long":139.6301179},
{"名前":"巌川橋","lat":35.577544,"long":139.6302265},
{"名前":"巌根","lat":35.414277,"long":139.9332441},
{"名前":"川ばた","lat":35.696001,"long":139.9787000},
{"名前":"川上村","lat":35.942189,"long":138.6217130},
{"名前":"川乗山","lat":35.850805,"long":139.1068845},
{"名前":"川井","lat":35.813159,"long":139.1630380},
{"名前":"川井","lat":35.813726,"long":139.1640340},
{"名前":"川井","lat":35.813751,"long":139.1640333},
{"名前":"川井キャンプ場","lat":35.811535,"long":139.1649593},
{"名前":"川井宿町","lat":35.489809,"long":139.5160629},
{"名前":"川井本町","lat":35.490056,"long":139.5156419},
{"名前":"川井浄水場入口","lat":35.501410,"long":139.4910462},
{"名前":"川井浄水場入口","lat":35.501509,"long":139.4906038},
{"名前":"川井浄水場裏口","lat":35.502854,"long":139.4884146},
{"名前":"川井浄水場裏口","lat":35.503037,"long":139.4885236},
{"名前":"川口","lat":35.801889,"long":139.7174442},
{"名前":"川口","lat":35.801925,"long":139.7175116},
{"名前":"川口","lat":35.801950,"long":139.7176093},
{"名前":"川口JCT","lat":35.851246,"long":139.7337838},
{"名前":"川口JCT","lat":35.852549,"long":139.7290025},
{"名前":"川口JCT","lat":35.853165,"long":139.7388875},
{"名前":"川口JCT","lat":35.854817,"long":139.7342345},
{"名前":"川口JCT","lat":35.856860,"long":139.7343656},
{"名前":"川口中央","lat":35.852198,"long":139.7269074},
{"名前":"川口元郷","lat":35.800644,"long":139.7304950},
{"名前":"川口北高校北","lat":35.861251,"long":139.7156390},
{"名前":"川口北高校北","lat":35.861343,"long":139.7156552},
{"名前":"川口川橋","lat":35.669119,"long":139.3309555},
{"名前":"川口川橋南","lat":35.668314,"long":139.3307439},
{"名前":"川口市","lat":35.807822,"long":139.7241054},
{"名前":"川口市立新郷東小学校","lat":35.829706,"long":139.7762660},
{"名前":"川口市立科学館","lat":35.827676,"long":139.7198599},
{"名前":"川口東","lat":35.852151,"long":139.7495146},
{"名前":"川口神社","lat":35.798148,"long":139.7227169},
{"名前":"川口西","lat":35.845779,"long":139.6961595},
{"名前":"川口西","lat":35.845934,"long":139.6975753},
{"名前":"川口陸橋下","lat":35.806137,"long":139.7169645},
{"名前":"川口陸橋西","lat":35.804100,"long":139.7122565},
{"名前":"川古江屋","lat":35.319430,"long":139.5510330},
{"名前":"川向町","lat":35.515549,"long":139.5806490},
{"名前":"川和町","lat":35.528460,"long":139.5492034},
{"名前":"川尻","lat":35.594255,"long":139.3029706},
{"名前":"川尻","lat":35.594324,"long":139.3030530},
{"名前":"川岸","lat":35.806208,"long":139.6867770},
{"名前":"川岸三丁目","lat":35.805913,"long":139.6835397},
{"名前":"川島IC","lat":35.980448,"long":139.4640035},
{"名前":"川島IC","lat":35.983198,"long":139.4695446},
{"名前":"川島町","lat":35.992441,"long":139.4840808},
{"名前":"川島通り入口","lat":35.687376,"long":139.6721973},
{"名前":"川崎","lat":35.531271,"long":139.6970652},
{"名前":"川崎","lat":35.531346,"long":139.6969816},
{"名前":"川崎","lat":35.531354,"long":139.6969517},
{"名前":"川崎","lat":35.531370,"long":139.6969360},
{"名前":"川崎","lat":35.531436,"long":139.6968481},
{"名前":"川崎","lat":35.531463,"long":139.6968135},
{"名前":"川崎","lat":35.531539,"long":139.6967170},
{"名前":"川崎","lat":35.695359,"long":139.7914253},
{"名前":"川崎・横浜・横須賀・三浦　タクシーのりば","lat":35.549736,"long":139.7888967},
{"名前":"川崎・横浜・横須賀・三浦　タクシーのりば","lat":35.552068,"long":139.7872471},
{"名前":"川崎信用金庫","lat":35.571720,"long":139.5947085},
{"名前":"川崎北加瀬郵便局","lat":35.554715,"long":139.6613402},
{"名前":"川崎北税務署前","lat":35.592761,"long":139.6149980},
{"名前":"川崎北高校入口","lat":35.573319,"long":139.5904957},
{"名前":"川崎区","lat":35.503570,"long":139.7457840},
{"名前":"川崎大師","lat":35.535762,"long":139.7259540},
{"名前":"川崎家電","lat":35.565314,"long":139.6508818},
{"名前":"川崎小倉店","lat":35.535562,"long":139.6660697},
{"名前":"川崎小杉郵便局","lat":35.579223,"long":139.6526677},
{"名前":"川崎工場発電所","lat":35.521989,"long":139.7601029},
{"名前":"川崎市","lat":35.523142,"long":139.7080240},
{"名前":"川崎市国際交流センター前","lat":35.569231,"long":139.6477577},
{"名前":"川崎市役所","lat":35.530902,"long":139.7030344},
{"名前":"川崎市緑化センター南側","lat":35.611738,"long":139.5832190},
{"名前":"川崎新町","lat":35.518148,"long":139.6994733},
{"名前":"川崎汽船研修所","lat":35.537253,"long":139.4798393},
{"名前":"川崎浮島JCT","lat":35.512034,"long":139.7859938},
{"名前":"川崎浮島JCT","lat":35.512138,"long":139.7858946},
{"名前":"川崎港郵便局","lat":35.512007,"long":139.7205022},
{"名前":"川崎港郵便局前","lat":35.512223,"long":139.7210708},
{"名前":"川崎火力発電所","lat":35.512335,"long":139.7623286},
{"名前":"川崎病院入口","lat":35.524908,"long":139.7065044},
{"名前":"川崎病院入口","lat":35.525045,"long":139.7065381},
{"名前":"川崎臨港警察署前","lat":35.522173,"long":139.7308380},
{"名前":"川崎臨港警察署前","lat":35.522219,"long":139.7309129},
{"名前":"川崎臨港警察署前","lat":35.522338,"long":139.7306758},
{"名前":"川崎臨港警察署前","lat":35.522386,"long":139.7307417},
{"名前":"川崎街道入口","lat":35.678328,"long":139.4004649},
{"名前":"川崎西合同庁舎","lat":35.602399,"long":139.5093615},
{"名前":"川崎警察署入口","lat":35.521837,"long":139.6936160},
{"名前":"川崎警察署入口","lat":35.521969,"long":139.6933866},
{"名前":"川崎警察署東側入口","lat":35.525667,"long":139.6956781},
{"名前":"川崎警察署東側入口","lat":35.525734,"long":139.6958009},
{"名前":"川崎駅前北","lat":35.531364,"long":139.6986993},
{"名前":"川崎駅前南","lat":35.529540,"long":139.6979861},
{"名前":"川崎駅前南","lat":35.529592,"long":139.6978908},
{"名前":"川崎駅前南","lat":35.529602,"long":139.6980499},
{"名前":"川崎駅前南","lat":35.529668,"long":139.6979652},
{"名前":"川崎駅前東","lat":35.531047,"long":139.6994544},
{"名前":"川崎駅前東","lat":35.531101,"long":139.6993379},
{"名前":"川崎駅前東","lat":35.531169,"long":139.6994162},
{"名前":"川手歯科病院","lat":35.701829,"long":139.9822626},
{"名前":"川村学園女子大学","lat":35.877127,"long":140.0546951},
{"名前":"川村学園女子大学","lat":35.877169,"long":140.0547496},
{"名前":"川端橋南","lat":35.624599,"long":139.3926418},
{"名前":"川端橋南","lat":35.624709,"long":139.3925530},
{"名前":"川角","lat":35.937419,"long":139.3467631},
{"名前":"川越","lat":35.907002,"long":139.4832484},
{"名前":"川越IC","lat":35.890995,"long":139.4610216},
{"名前":"川越IC","lat":35.896708,"long":139.4570704},
{"名前":"川越プリンスホテル","lat":35.913831,"long":139.4813435},
{"名前":"川越夜戦跡","lat":35.928507,"long":139.4843170},
{"名前":"川越市","lat":35.914060,"long":139.4771723},
{"名前":"川越市","lat":35.925114,"long":139.4856927},
{"名前":"川越観音","lat":35.909540,"long":139.4952057},
{"名前":"川越警察署神明町交番","lat":35.930335,"long":139.4811145},
{"名前":"川辺医院","lat":35.808027,"long":139.0974243},
{"名前":"川鉄千葉グリーンパワーステーション","lat":35.580704,"long":140.1255256},
{"名前":"川鉄病院","lat":35.583834,"long":140.1313910},
{"名前":"川間","lat":35.979124,"long":139.8339991},
{"名前":"川間","lat":35.979188,"long":139.8339905},
{"名前":"川間","lat":35.979246,"long":139.8339844},
{"名前":"巣鴨","lat":35.733358,"long":139.7394571},
{"名前":"巣鴨","lat":35.733411,"long":139.7394273},
{"名前":"巣鴨","lat":35.733457,"long":139.7394013},
{"名前":"巣鴨","lat":35.733677,"long":139.7380979},
{"名前":"巣鴨","lat":35.733707,"long":139.7381212},
{"名前":"巣鴨","lat":35.733735,"long":139.7381539},
{"名前":"巣鴨信用金庫","lat":35.732872,"long":139.7675102},
{"名前":"巣鴨新田","lat":35.735394,"long":139.7278132},
{"名前":"巣鴨新田","lat":35.735513,"long":139.7277426},
{"名前":"巣鴨新田","lat":35.735679,"long":139.7276439},
{"名前":"工業団地入口","lat":35.331620,"long":139.3626357},
{"名前":"工業団地入口","lat":35.783175,"long":139.3173663},
{"名前":"工業団地入口","lat":35.812103,"long":139.3775916},
{"名前":"工業団地入口","lat":35.812128,"long":139.3776810},
{"名前":"左入橋","lat":35.684280,"long":139.3459324},
{"名前":"左入橋","lat":35.684329,"long":139.3458063},
{"名前":"左入橋","lat":35.684476,"long":139.3460891},
{"名前":"左入橋","lat":35.684517,"long":139.3459479},
{"名前":"左入町東","lat":35.683358,"long":139.3491822},
{"名前":"左門町","lat":35.684160,"long":139.7199330},
{"名前":"左門町","lat":35.684526,"long":139.7200717},
{"名前":"左門町","lat":35.684530,"long":139.7199745},
{"名前":"左門町","lat":35.684635,"long":139.7201693},
{"名前":"左馬でん助","lat":35.696911,"long":139.4167102},
{"名前":"巴不動産","lat":35.633156,"long":139.5768849},
{"名前":"巴屋","lat":35.368500,"long":139.3872919},
{"名前":"巻石通り","lat":35.710031,"long":139.7428258},
{"名前":"市が尾","lat":35.551201,"long":139.5411625},
{"名前":"市が尾","lat":35.551218,"long":139.5411316},
{"名前":"市が尾","lat":35.551348,"long":139.5412811},
{"名前":"市が尾駅入口","lat":35.549748,"long":139.5389995},
{"名前":"市が尾駅入口","lat":35.549798,"long":139.5391013},
{"名前":"市が尾駅前","lat":35.552462,"long":139.5411412},
{"名前":"市が尾駅前","lat":35.552537,"long":139.5410987},
{"名前":"市の坪中町","lat":35.570550,"long":139.6607726},
{"名前":"市の坪中町","lat":35.570636,"long":139.6608216},
{"名前":"市の坪南町","lat":35.562790,"long":139.6681697},
{"名前":"市の坪南町","lat":35.563201,"long":139.6677275},
{"名前":"市の坪本町","lat":35.567216,"long":139.6638571},
{"名前":"市の坪本町","lat":35.567569,"long":139.6634400},
{"名前":"市ケ谷","lat":35.691318,"long":139.7355040},
{"名前":"市ケ谷","lat":35.692313,"long":139.7355890},
{"名前":"市ケ谷","lat":35.692317,"long":139.7367846},
{"名前":"市ケ谷","lat":35.692351,"long":139.7367426},
{"名前":"市ケ谷","lat":35.692366,"long":139.7366696},
{"名前":"市ノ坪","lat":35.571530,"long":139.6600702},
{"名前":"市ヶ尾","lat":35.550919,"long":139.5379769},
{"名前":"市ヶ尾","lat":35.550990,"long":139.5380877},
{"名前":"市ヶ尾","lat":35.551132,"long":139.5378008},
{"名前":"市ヶ尾","lat":35.551191,"long":139.5379138},
{"名前":"市ヶ尾中学校前","lat":35.546386,"long":139.5460513},
{"名前":"市ヶ尾変電所前","lat":35.549016,"long":139.5395643},
{"名前":"市ヶ尾変電所前","lat":35.549056,"long":139.5396659},
{"名前":"市ヶ尾第4公園前","lat":35.552412,"long":139.5428820},
{"名前":"市ヶ谷","lat":35.691556,"long":139.7376390},
{"名前":"市ヶ谷","lat":35.691579,"long":139.7384793},
{"名前":"市ヶ谷","lat":35.691970,"long":139.7384841},
{"名前":"市ヶ谷駅","lat":35.692654,"long":139.7361198},
{"名前":"市ヶ谷駅","lat":35.692726,"long":139.7360320},
{"名前":"市制記念公園入口","lat":35.780438,"long":140.0062375},
{"名前":"市南区合同庁舎前","lat":35.530519,"long":139.4315792},
{"名前":"市原IC","lat":35.494077,"long":140.0909396},
{"名前":"市原IC","lat":35.497274,"long":140.0947197},
{"名前":"市原IC東側","lat":35.497239,"long":140.0939947},
{"名前":"市原IC東側","lat":35.497307,"long":140.0940899},
{"名前":"市原ぞうの国","lat":35.355243,"long":140.1821993},
{"名前":"市原市","lat":35.497775,"long":140.1156996},
{"名前":"市原橋脇","lat":35.506963,"long":140.1055906},
{"名前":"市原湖畔美術館","lat":35.349109,"long":140.1608273},
{"名前":"市原薬局","lat":35.689077,"long":139.9906711},
{"名前":"市原薬局","lat":35.701035,"long":139.9870600},
{"名前":"市原鶴舞IC","lat":35.356203,"long":140.1780196},
{"名前":"市原鶴舞IC","lat":35.360051,"long":140.1851433},
{"名前":"市原ＳＡ（上り）","lat":35.460715,"long":140.0850006},
{"名前":"市原ＳＡ（下り）","lat":35.458767,"long":140.0857369},
{"名前":"市営プール入口","lat":35.547206,"long":139.4245948},
{"名前":"市営プール入口","lat":35.547245,"long":139.4247039},
{"名前":"市営プール前","lat":35.719826,"long":139.5679419},
{"名前":"市営大和田団地","lat":35.667707,"long":139.3537142},
{"名前":"市営大和田団地","lat":35.667719,"long":139.3538041},
{"名前":"市営斎場入口","lat":35.548803,"long":139.4225608},
{"名前":"市営斎場入口","lat":35.548888,"long":139.4226359},
{"名前":"市営竜ヶ崎斎場","lat":35.895437,"long":140.1777001},
{"名前":"市営等々力グランド入口","lat":35.583651,"long":139.6489342},
{"名前":"市営等々力グランド入口","lat":35.583866,"long":139.6487726},
{"名前":"市場のあんちゃん","lat":35.609224,"long":139.6849078},
{"名前":"市場前","lat":35.645744,"long":139.7857948},
{"名前":"市場前","lat":35.645771,"long":139.7857992},
{"名前":"市場前","lat":35.645787,"long":139.7857539},
{"名前":"市場医院","lat":35.747772,"long":139.4246895},
{"名前":"市場小通学路入口","lat":35.705229,"long":139.9890373},
{"名前":"市場町デンタルクリニック","lat":35.704821,"long":139.9985900},
{"名前":"市場西入口","lat":35.638803,"long":138.5535796},
{"名前":"市場食堂","lat":35.342223,"long":139.6221267},
{"名前":"市大医学部","lat":35.343936,"long":139.6500917},
{"名前":"市大医学部","lat":35.343945,"long":139.6500687},
{"名前":"市大医学部","lat":35.343947,"long":139.6501393},
{"名前":"市川","lat":35.728859,"long":139.9081878},
{"名前":"市川三郷町","lat":35.565277,"long":138.5022222},
{"名前":"市川塩浜","lat":35.666629,"long":139.9236692},
{"名前":"市川塩浜","lat":35.666636,"long":139.9236490},
{"名前":"市川塩浜","lat":35.666642,"long":139.9236318},
{"名前":"市川大野","lat":35.755384,"long":139.9512825},
{"名前":"市川市","lat":35.721903,"long":139.9309730},
{"名前":"市川市","lat":35.729412,"long":139.9285680},
{"名前":"市川東病院","lat":35.703688,"long":139.9601263},
{"名前":"市川歯科病院","lat":35.699675,"long":139.9833454},
{"名前":"市川真間","lat":35.731426,"long":139.9115472},
{"名前":"市川駅(本八幡駅方面行)","lat":35.728678,"long":139.9077358},
{"名前":"市川駅前(羽田空港行)","lat":35.728380,"long":139.9074381},
{"名前":"市庁舎前","lat":35.444066,"long":139.6388806},
{"名前":"市役所入口","lat":35.403557,"long":139.3121564},
{"名前":"市役所前","lat":35.402543,"long":139.3130270},
{"名前":"市役所前","lat":35.488023,"long":138.8071552},
{"名前":"市役所前","lat":35.530314,"long":139.7023838},
{"名前":"市役所前","lat":35.530413,"long":139.7024204},
{"名前":"市役所前","lat":35.607203,"long":140.1078679},
{"名前":"市役所前","lat":35.607224,"long":140.1078479},
{"名前":"市役所前","lat":35.607244,"long":140.1078288},
{"名前":"市役所前","lat":35.704125,"long":139.3534313},
{"名前":"市役所前","lat":35.704199,"long":139.3534794},
{"名前":"市役所前東","lat":35.530192,"long":139.7033115},
{"名前":"市役所前通","lat":35.570872,"long":139.3741045},
{"名前":"市役所前通","lat":35.571240,"long":139.3742260},
{"名前":"市役所北","lat":35.336727,"long":139.3509423},
{"名前":"市役所南","lat":35.691413,"long":138.6856503},
{"名前":"市役所東","lat":35.485622,"long":138.8118621},
{"名前":"市役所東","lat":35.485654,"long":138.8117809},
{"名前":"市役所東","lat":35.709441,"long":138.4477354},
{"名前":"市役所西","lat":35.704811,"long":139.3520323},
{"名前":"市役所西","lat":35.704883,"long":139.3520810},
{"名前":"市政センター","lat":35.702376,"long":139.5454663},
{"名前":"市村屋","lat":35.697065,"long":139.9923300},
{"名前":"市民グランド前","lat":35.639242,"long":139.5789434},
{"名前":"市民スポーツセンター入口","lat":35.443847,"long":139.4234298},
{"名前":"市民スポーツセンター入口","lat":35.443867,"long":139.4234968},
{"名前":"市民プール前","lat":35.640984,"long":139.5464605},
{"名前":"市民会館前（武蔵野市）","lat":35.705225,"long":139.5430410},
{"名前":"市民体育館入口","lat":35.600363,"long":138.5139688},
{"名前":"市民体育館前","lat":35.728835,"long":139.3036262},
{"名前":"市民体育館前","lat":35.810193,"long":139.4616702},
{"名前":"市民文化会館前","lat":35.711520,"long":139.5668550},
{"名前":"市民文化会館前","lat":35.712013,"long":139.5656766},
{"名前":"市民文化会館前","lat":35.712137,"long":139.5655152},
{"名前":"市民活動サポートセンター","lat":35.281133,"long":139.6626654},
{"名前":"市立けやき小学校","lat":35.734317,"long":139.5260057},
{"名前":"市立上向台小学校","lat":35.722236,"long":139.5251343},
{"名前":"市立上溝中学校","lat":35.560021,"long":139.3633880},
{"名前":"市立中央図書館前","lat":35.539822,"long":139.4504694},
{"名前":"市立井口小学校","lat":35.692286,"long":139.5444520},
{"名前":"市立体育館","lat":35.725948,"long":139.9933991},
{"名前":"市立体育館","lat":35.726018,"long":139.9936039},
{"名前":"市立入間小学校","lat":35.834655,"long":139.4273450},
{"名前":"市立南小学校","lat":35.985933,"long":139.0840970},
{"名前":"市立南足柄中学校","lat":35.321741,"long":139.0983610},
{"名前":"市立南足柄小学校","lat":35.322491,"long":139.0992220},
{"名前":"市立向台小学校","lat":35.722180,"long":139.5396377},
{"名前":"市立四方津小学校","lat":35.615689,"long":139.0793000},
{"名前":"市立図書館前","lat":35.450925,"long":139.3856323},
{"名前":"市立境南小学校","lat":35.697147,"long":139.5447290},
{"名前":"市立大和中学校","lat":35.640245,"long":138.7799190},
{"名前":"市立大月西小学校","lat":35.609339,"long":138.9058200},
{"名前":"市立大沢中学校","lat":35.575050,"long":139.3275030},
{"名前":"市立大沢小学校","lat":35.576050,"long":139.3254480},
{"名前":"市立大滝小学校","lat":35.954601,"long":138.9164210},
{"名前":"市立奈良輪小学校","lat":35.438576,"long":139.9660620},
{"名前":"市立小平第三小学校","lat":35.715075,"long":139.4922587},
{"名前":"市立小金井第一中学校","lat":35.710561,"long":139.5038150},
{"名前":"市立小金井第二小学校","lat":35.710450,"long":139.5055370},
{"名前":"市立小金井第四小学校","lat":35.699867,"long":139.4940110},
{"名前":"市立愛宕小学校","lat":35.619294,"long":139.3732670},
{"名前":"市立旭町体育館","lat":35.556181,"long":139.4469151},
{"名前":"市立昭和中学校","lat":35.431216,"long":139.9724500},
{"名前":"市立本町小学校","lat":35.373771,"long":139.2237106},
{"名前":"市立松が谷中学校","lat":35.630290,"long":139.4176590},
{"名前":"市立松中小学校","lat":35.731749,"long":139.3767150},
{"名前":"市立桜野小学校","lat":35.709855,"long":139.5340985},
{"名前":"市立梁川小学校","lat":35.600288,"long":139.0429710},
{"名前":"市立田無第一中学校","lat":35.724504,"long":139.5317290},
{"名前":"市立田無第三中学校","lat":35.734809,"long":139.5310900},
{"名前":"市立相模原保育園入口","lat":35.577370,"long":139.3644032},
{"名前":"市立立川第二中学校","lat":35.703233,"long":139.4262461},
{"名前":"市立立川第四中学校","lat":35.726219,"long":139.4254475},
{"名前":"市立第七小学校","lat":35.703700,"long":139.4835950},
{"名前":"市立第三小学校","lat":35.708005,"long":139.4773730},
{"名前":"市立第二中学校","lat":35.704133,"long":139.4828826},
{"名前":"市立第二中学校","lat":35.709812,"long":139.5354240},
{"名前":"市立第二中学校","lat":35.757481,"long":140.0044100},
{"名前":"市立第六中学校","lat":35.708534,"long":139.5453670},
{"名前":"市立総合病院前","lat":35.783827,"long":139.2823558},
{"名前":"市立美術館前","lat":35.787668,"long":139.2563517},
{"名前":"市立羽沢小学校","lat":35.670205,"long":139.5383970},
{"名前":"市立花栗中学校","lat":35.839691,"long":139.7902860},
{"名前":"市立荒川西小学校","lat":35.966553,"long":138.9778370},
{"名前":"市立萩山小学校","lat":35.743584,"long":139.4777610},
{"名前":"市立蔵波中学校","lat":35.435410,"long":139.9970590},
{"名前":"市立蔵波小学校","lat":35.442131,"long":139.9981970},
{"名前":"市立調布中学校","lat":35.665345,"long":139.5352590},
{"名前":"市立足柄台中学校","lat":35.324908,"long":139.1072760},
{"名前":"市立野寺小学校","lat":35.759814,"long":139.5564708},
{"名前":"市立野寺小学校","lat":35.759884,"long":139.5564735},
{"名前":"市立高根台第三小学校","lat":35.730534,"long":140.0322316},
{"名前":"市米橋","lat":35.405449,"long":139.3096139},
{"名前":"市谷亀岡八幡宮","lat":35.692738,"long":139.7337240},
{"名前":"市農業協同組合前","lat":35.566788,"long":139.3709896},
{"名前":"布佐","lat":35.849012,"long":140.1331197},
{"名前":"布多天神前","lat":35.655049,"long":139.5450365},
{"名前":"布施内科医院","lat":35.633741,"long":139.5765148},
{"名前":"布田","lat":35.649836,"long":139.5516700},
{"名前":"布田4丁目","lat":35.647751,"long":139.5453268},
{"名前":"布田6丁目","lat":35.643802,"long":139.5511601},
{"名前":"布田デンタルクリニック","lat":35.650418,"long":139.5508127},
{"名前":"布田橋","lat":35.635274,"long":139.5444068},
{"名前":"布田駅前","lat":35.651226,"long":139.5511102},
{"名前":"帆輪異斗","lat":35.688241,"long":139.4738503},
{"名前":"希望ヶ丘","lat":35.460679,"long":139.5133300},
{"名前":"希望ヶ丘中学","lat":35.659461,"long":139.6203805},
{"名前":"帝京大学東","lat":35.639474,"long":139.4233218},
{"名前":"帝京大学東","lat":35.639571,"long":139.4232392},
{"名前":"帝京幼稚園","lat":35.758477,"long":139.7124620},
{"名前":"帝京科学大学千住キャンパス6号館","lat":35.752610,"long":139.7920385},
{"名前":"帝京科学大学千住キャンパス7号館","lat":35.750932,"long":139.7922636},
{"名前":"帝京科学大学千住キャンパス本館","lat":35.753508,"long":139.7895026},
{"名前":"帝京科学大学４号館","lat":35.748884,"long":139.7940722},
{"名前":"帝京科学大学５号館","lat":35.748889,"long":139.7934139},
{"名前":"帝国ホテル東京","lat":35.671901,"long":139.7587458},
{"名前":"帝国劇場","lat":35.676500,"long":139.7606661},
{"名前":"師岡町","lat":35.791494,"long":139.2840772},
{"名前":"師岡町四丁目","lat":35.787082,"long":139.2865818},
{"名前":"帰国子女アカデミー","lat":35.616744,"long":139.6752688},
{"名前":"常専寺入口","lat":35.566749,"long":139.6381646},
{"名前":"常専寺入口","lat":35.566780,"long":139.6381883},
{"名前":"常楽寺入口","lat":35.585159,"long":139.6448074},
{"名前":"常泉寺東側","lat":35.434719,"long":139.4613086},
{"名前":"常盤","lat":35.585879,"long":139.3950179},
{"名前":"常盤九丁目","lat":35.869881,"long":139.6455286},
{"名前":"常盤台","lat":35.761537,"long":139.6855991},
{"名前":"常盤台一丁目","lat":35.761122,"long":139.6900612},
{"名前":"常盤台一丁目","lat":35.761211,"long":139.6899993},
{"名前":"常盤台三丁目","lat":35.764170,"long":139.6829550},
{"名前":"常盤台四丁目","lat":35.765086,"long":139.6790034},
{"名前":"常盤台四丁目","lat":35.765755,"long":139.6786026},
{"名前":"常盤台教会","lat":35.759691,"long":139.6871918},
{"名前":"常盤台教会","lat":35.759705,"long":139.6873614},
{"名前":"常盤台郵便局","lat":35.762758,"long":139.6901840},
{"名前":"常盤台郵便局","lat":35.762967,"long":139.6902846},
{"名前":"常盤平","lat":35.803365,"long":139.9501233},
{"名前":"常盤平西窪町","lat":35.798168,"long":139.9429893},
{"名前":"常盤幼稚園","lat":35.687974,"long":139.7704706},
{"名前":"常盤橋","lat":35.672210,"long":139.6728491},
{"名前":"常盤橋際","lat":35.562680,"long":139.5130109},
{"名前":"常真寺前","lat":35.532389,"long":139.6115519},
{"名前":"常真寺前","lat":35.532709,"long":139.6114733},
{"名前":"常磐町三丁目","lat":35.446283,"long":139.6362381},
{"名前":"常葉バイパス南","lat":35.438493,"long":138.4748171},
{"名前":"常葉バイパス南","lat":35.438690,"long":138.4748534},
{"名前":"幕張","lat":35.659393,"long":140.0579629},
{"名前":"幕張IC","lat":35.669429,"long":140.0307041},
{"名前":"幕張IC","lat":35.669683,"long":140.0379871},
{"名前":"幕張クリーンセンター","lat":35.644916,"long":140.0465035},
{"名前":"幕張メッセ","lat":35.649833,"long":140.0361530},
{"名前":"幕張国際研修センター","lat":35.651250,"long":140.0473353},
{"名前":"幕張本郷","lat":35.672690,"long":140.0422934},
{"名前":"幡ヶ谷","lat":35.677211,"long":139.6767644},
{"名前":"幡ヶ谷","lat":35.677238,"long":139.6767757},
{"名前":"幡ヶ谷","lat":35.677261,"long":139.6767397},
{"名前":"平","lat":35.598994,"long":139.5743978},
{"名前":"平二丁目","lat":35.599288,"long":139.5708754},
{"名前":"平五丁目","lat":35.596234,"long":139.5720200},
{"名前":"平井","lat":35.706421,"long":139.8425122},
{"名前":"平井二丁目","lat":35.704814,"long":139.8451296},
{"名前":"平台中央","lat":35.536332,"long":139.5705222},
{"名前":"平台中央","lat":35.536517,"long":139.5705244},
{"名前":"平和I","lat":35.447333,"long":139.6358596},
{"名前":"平和II","lat":35.446955,"long":139.6365329},
{"名前":"平和不動産","lat":35.491358,"long":139.6451368},
{"名前":"平和台","lat":35.757627,"long":139.6541727},
{"名前":"平和台","lat":35.757916,"long":139.6538208},
{"名前":"平和台","lat":35.850876,"long":139.9010810},
{"名前":"平和台三丁目","lat":35.758263,"long":139.6606227},
{"名前":"平和台二丁目","lat":35.759450,"long":139.6624727},
{"名前":"平和台図書館入口","lat":35.760432,"long":139.6640034},
{"名前":"平和台駅前","lat":35.758217,"long":139.6532127},
{"名前":"平和台駅前","lat":35.758281,"long":139.6531371},
{"名前":"平和商事","lat":35.742892,"long":139.7641980},
{"名前":"平和島","lat":35.578720,"long":139.7349776},
{"名前":"平和島口","lat":35.582901,"long":139.7364780},
{"名前":"平和島口","lat":35.582929,"long":139.7366804},
{"名前":"平和島口","lat":35.583000,"long":139.7364666},
{"名前":"平和島口","lat":35.583037,"long":139.7366725},
{"名前":"平和島競艇場","lat":35.586009,"long":139.7389462},
{"名前":"平和橋自動車学校","lat":35.731104,"long":139.8465140},
{"名前":"平塚","lat":35.327380,"long":139.3491788},
{"名前":"平塚","lat":35.327416,"long":139.3491649},
{"名前":"平塚","lat":35.327472,"long":139.3491423},
{"名前":"平塚","lat":35.327531,"long":139.3491408},
{"名前":"平塚(北)","lat":35.989281,"long":139.6058584},
{"名前":"平塚ろう学校前","lat":35.339124,"long":139.3368020},
{"名前":"平塚八幡宮","lat":35.333964,"long":139.3491169},
{"名前":"平塚営林署入口","lat":35.332932,"long":139.3392525},
{"名前":"平塚団地入口","lat":35.990930,"long":139.5986843},
{"名前":"平塚市","lat":35.357674,"long":139.3182780},
{"名前":"平塚市役所前","lat":35.334924,"long":139.3504586},
{"名前":"平塚橋","lat":35.615413,"long":139.7089486},
{"名前":"平塚橋","lat":35.615461,"long":139.7089837},
{"名前":"平塚橋","lat":35.615470,"long":139.7088915},
{"名前":"平塚神社","lat":35.746196,"long":139.7460797},
{"名前":"平塚神社前","lat":35.744053,"long":139.7454100},
{"名前":"平塚神社前","lat":35.744099,"long":139.7454501},
{"名前":"平塚郵便局","lat":35.334788,"long":139.3461690},
{"名前":"平家の郷みなみ野館","lat":35.625579,"long":139.3278483},
{"名前":"平山","lat":35.274403,"long":140.0648279},
{"名前":"平山","lat":35.645777,"long":139.3788407},
{"名前":"平山一丁目","lat":35.644994,"long":139.3921254},
{"名前":"平山三丁目","lat":35.645887,"long":139.3847048},
{"名前":"平山五丁目","lat":35.647025,"long":139.3842814},
{"名前":"平山城址公園","lat":35.647528,"long":139.3801778},
{"名前":"平山城址公園駅","lat":35.646317,"long":139.3811074},
{"名前":"平山橋","lat":35.651390,"long":139.3809535},
{"名前":"平山橋北","lat":35.652106,"long":139.3803338},
{"名前":"平山橋南","lat":35.650444,"long":139.3820500},
{"名前":"平山町","lat":35.572402,"long":140.1956355},
{"名前":"平川","lat":35.580411,"long":139.5476184},
{"名前":"平川","lat":35.580492,"long":139.5473010},
{"名前":"平川会計パートナーズ","lat":35.705059,"long":139.7706912},
{"名前":"平川門","lat":35.690292,"long":139.7588247},
{"名前":"平川門","lat":35.690436,"long":139.7588427},
{"名前":"平戸入口","lat":35.773345,"long":140.1104676},
{"名前":"平戸入口","lat":35.773386,"long":140.1108758},
{"名前":"平戸台","lat":35.772017,"long":140.1070882},
{"名前":"平戸台","lat":35.772139,"long":140.1077064},
{"名前":"平林","lat":35.581100,"long":138.4067756},
{"名前":"平歯科医院","lat":35.491253,"long":139.6453637},
{"名前":"平沢","lat":35.730655,"long":139.3189207},
{"名前":"平河町","lat":35.680954,"long":139.7400890},
{"名前":"平沼橋","lat":35.459665,"long":139.6163426},
{"名前":"平津","lat":35.585590,"long":139.5490559},
{"名前":"平津","lat":35.585636,"long":139.5493151},
{"名前":"平津三叉路","lat":35.586602,"long":139.5462306},
{"名前":"平津三叉路","lat":35.586656,"long":139.5464839},
{"名前":"平津三叉路","lat":35.586922,"long":139.5455186},
{"名前":"平禄寿司","lat":35.441198,"long":139.6285630},
{"名前":"平間","lat":35.560929,"long":139.6709484},
{"名前":"平間","lat":35.560971,"long":139.6709128},
{"名前":"平間","lat":35.560972,"long":139.6709591},
{"名前":"平間小学校","lat":35.557620,"long":139.6764682},
{"名前":"平間山稱名寺","lat":35.549804,"long":139.6797858},
{"名前":"平間駅入口","lat":35.560697,"long":139.6697492},
{"名前":"平間駅入口","lat":35.560940,"long":139.6695902},
{"名前":"平間駅入口","lat":35.561266,"long":139.6693830},
{"名前":"平？？","lat":35.865340,"long":139.9793800},
{"名前":"幸区","lat":35.542206,"long":139.6911610},
{"名前":"幸子の店","lat":35.642512,"long":140.0968497},
{"名前":"幸寿司","lat":35.713443,"long":139.5429587},
{"名前":"幸楽苑","lat":35.363705,"long":139.3611220},
{"名前":"幸楽苑","lat":35.457039,"long":139.4669366},
{"名前":"幸楽苑","lat":35.496254,"long":139.4528173},
{"名前":"幸楽苑","lat":35.529625,"long":139.4709265},
{"名前":"幸楽苑","lat":35.537848,"long":139.4233976},
{"名前":"幸楽苑","lat":35.544275,"long":140.1729284},
{"名前":"幸楽苑","lat":35.573049,"long":139.3492641},
{"名前":"幸楽苑","lat":35.585109,"long":140.1233892},
{"名前":"幸楽苑","lat":35.598072,"long":139.5544434},
{"名前":"幸楽苑","lat":35.624612,"long":139.3920287},
{"名前":"幸楽苑","lat":35.636864,"long":139.4132390},
{"名前":"幸楽苑","lat":35.640163,"long":138.5439745},
{"名前":"幸楽苑","lat":35.643931,"long":138.5350646},
{"名前":"幸楽苑","lat":35.645427,"long":138.6146825},
{"名前":"幸楽苑","lat":35.651985,"long":138.5675455},
{"名前":"幸楽苑","lat":35.654179,"long":139.8969057},
{"名前":"幸楽苑","lat":35.658524,"long":139.6968485},
{"名前":"幸楽苑","lat":35.676015,"long":139.4357200},
{"名前":"幸楽苑","lat":35.685392,"long":139.9937438},
{"名前":"幸楽苑","lat":35.698138,"long":139.7757923},
{"名前":"幸楽苑","lat":35.705179,"long":139.5289399},
{"名前":"幸楽苑","lat":35.706772,"long":139.9866697},
{"名前":"幸楽苑","lat":35.711926,"long":138.4534273},
{"名前":"幸楽苑","lat":35.718817,"long":139.4316450},
{"名前":"幸楽苑","lat":35.731421,"long":139.9596596},
{"名前":"幸楽苑","lat":35.733748,"long":139.5430248},
{"名前":"幸楽苑","lat":35.736436,"long":139.5211901},
{"名前":"幸楽苑","lat":35.765551,"long":140.0194189},
{"名前":"幸楽苑","lat":35.783290,"long":139.8105693},
{"名前":"幸楽苑","lat":35.790158,"long":139.8414256},
{"名前":"幸楽苑","lat":35.792938,"long":139.9103409},
{"名前":"幸楽苑","lat":35.798464,"long":139.4908970},
{"名前":"幸楽苑","lat":35.801017,"long":139.8960123},
{"名前":"幸楽苑","lat":35.807049,"long":139.6834447},
{"名前":"幸楽苑","lat":35.812366,"long":139.7701132},
{"名前":"幸楽苑","lat":35.814698,"long":139.4606110},
{"名前":"幸楽苑","lat":35.820424,"long":139.3766862},
{"名前":"幸楽苑","lat":35.825954,"long":139.9627115},
{"名前":"幸楽苑","lat":35.828762,"long":140.0153660},
{"名前":"幸楽苑","lat":35.849657,"long":139.8979658},
{"名前":"幸楽苑","lat":35.861452,"long":139.7810748},
{"名前":"幸楽苑","lat":35.877447,"long":139.4315123},
{"名前":"幸楽苑","lat":35.896590,"long":139.9556189},
{"名前":"幸楽苑","lat":35.914129,"long":139.5724380},
{"名前":"幸楽苑","lat":35.918788,"long":139.4555990},
{"名前":"幸楽苑","lat":35.932554,"long":139.3866846},
{"名前":"幸楽苑三郷店","lat":35.848174,"long":139.8673464},
{"名前":"幸樂","lat":35.697001,"long":139.9961063},
{"名前":"幸浦","lat":35.358337,"long":139.6437391},
{"名前":"幸浦","lat":35.358344,"long":139.6436926},
{"名前":"幸浦","lat":35.358351,"long":139.6437776},
{"名前":"幸町","lat":35.534400,"long":139.6992017},
{"名前":"幸町","lat":35.534416,"long":139.6992747},
{"名前":"幸町","lat":35.726098,"long":139.4241644},
{"名前":"幸町二丁目","lat":35.536808,"long":139.6992659},
{"名前":"幸町二丁目","lat":35.536849,"long":139.6995344},
{"名前":"幸町交番前","lat":35.537472,"long":139.6996117},
{"名前":"幸町交番前","lat":35.537511,"long":139.6995272},
{"名前":"幸神","lat":35.742931,"long":139.2302688},
{"名前":"幸谷","lat":35.826400,"long":139.9197944},
{"名前":"幸野メディカルクリニック","lat":35.643672,"long":139.6076627},
{"名前":"幻の滝","lat":35.359504,"long":138.7726765},
{"名前":"広小路交差点","lat":35.610580,"long":140.1245591},
{"名前":"広小路交差点","lat":35.610630,"long":140.1247057},
{"名前":"広尾","lat":35.651534,"long":139.7222001},
{"名前":"広尾三丁目","lat":35.655192,"long":139.7137253},
{"名前":"広尾五丁目","lat":35.648158,"long":139.7206158},
{"名前":"広尾五丁目","lat":35.648241,"long":139.7206443},
{"名前":"広尾橋","lat":35.649497,"long":139.7224731},
{"名前":"広尾橋","lat":35.649942,"long":139.7223580},
{"名前":"広尾橋","lat":35.650225,"long":139.7225250},
{"名前":"広尾橋","lat":35.650727,"long":139.7222610},
{"名前":"広尾橋","lat":35.650753,"long":139.7223575},
{"名前":"広尾高校裏","lat":35.652820,"long":139.7134498},
{"名前":"広島屋釣船店","lat":35.442451,"long":139.6551962},
{"名前":"広済寺","lat":35.926976,"long":139.4824013},
{"名前":"広瀬","lat":35.644325,"long":138.6206562},
{"名前":"広瀬","lat":35.644382,"long":138.6208050},
{"名前":"広瀬東","lat":35.644040,"long":138.6229990},
{"名前":"広瀬東","lat":35.644099,"long":138.6231536},
{"名前":"広町","lat":35.537899,"long":139.6466802},
{"名前":"広町","lat":35.537912,"long":139.6468099},
{"名前":"広袴中央","lat":35.595262,"long":139.4742202},
{"名前":"広間地児童遊園","lat":35.673909,"long":139.4019520},
{"名前":"庄や","lat":35.603527,"long":139.7083370},
{"名前":"庄や","lat":35.700837,"long":139.7421933},
{"名前":"庄や","lat":35.701955,"long":139.5462650},
{"名前":"庄や","lat":35.711277,"long":139.7754170},
{"名前":"庄や","lat":35.712582,"long":139.7775480},
{"名前":"庄や","lat":35.724304,"long":140.2299850},
{"名前":"庄や","lat":35.784501,"long":139.9012174},
{"名前":"庄や","lat":35.902467,"long":139.5195356},
{"名前":"庄や京王北野北口店","lat":35.644925,"long":139.3547530},
{"名前":"店舗前","lat":35.722253,"long":140.0442884},
{"名前":"店舗前","lat":35.722543,"long":140.0449643},
{"名前":"庚申堂","lat":35.697617,"long":139.5395400},
{"名前":"庚申塚","lat":35.739490,"long":139.7296644},
{"名前":"庚申塚","lat":35.739603,"long":139.7297221},
{"名前":"庚申塚","lat":35.739740,"long":139.7297886},
{"名前":"府中","lat":35.672205,"long":139.4801750},
{"名前":"府中の森公園東","lat":35.678648,"long":139.4947568},
{"名前":"府中の森公園東","lat":35.678692,"long":139.4947768},
{"名前":"府中の森芸術劇場東","lat":35.672775,"long":139.4942035},
{"名前":"府中スマートIC","lat":35.660168,"long":139.4932836},
{"名前":"府中メディカルプラザ入口","lat":35.694074,"long":139.4624028},
{"名前":"府中九中南","lat":35.661705,"long":139.5026465},
{"名前":"府中四谷郵便局","lat":35.663784,"long":139.4468685},
{"名前":"府中団地角","lat":35.678103,"long":139.4779444},
{"名前":"府中市","lat":35.661111,"long":139.4734451},
{"名前":"府中市在宅介護支援センター","lat":35.672981,"long":139.4740140},
{"名前":"府中市役所","lat":35.669138,"long":139.4778708},
{"名前":"府中市役所前","lat":35.669942,"long":139.4768304},
{"名前":"府中市立しみずがおか高齢者在宅介護支援センター","lat":35.668787,"long":139.4938180},
{"名前":"府中市立是政図書館","lat":35.660864,"long":139.4953081},
{"名前":"府中愛児園","lat":35.667896,"long":139.4928374},
{"名前":"府中日吉町","lat":35.666114,"long":139.4916220},
{"名前":"府中朝日フットボールパーク北","lat":35.676218,"long":139.5214513},
{"名前":"府中本町","lat":35.666078,"long":139.4769835},
{"名前":"府中本町","lat":35.666079,"long":139.4769513},
{"名前":"府中本町","lat":35.666086,"long":139.4770463},
{"名前":"府中本町","lat":35.666093,"long":139.4772065},
{"名前":"府中本町","lat":35.666095,"long":139.4771621},
{"名前":"府中本町","lat":35.666104,"long":139.4772686},
{"名前":"府中本町","lat":35.666109,"long":139.4771010},
{"名前":"府中本町二郵便局","lat":35.665982,"long":139.4762640},
{"名前":"府中本町駅入口","lat":35.666977,"long":139.4779437},
{"名前":"府中栄町三丁目","lat":35.687748,"long":139.4697337},
{"名前":"府中栄町三丁目","lat":35.687971,"long":139.4696481},
{"名前":"府中消防署是政出張所","lat":35.660733,"long":139.4935960},
{"名前":"府中清水が丘郵便局","lat":35.667093,"long":139.4942900},
{"名前":"府中白糸台郵便局","lat":35.667732,"long":139.5099280},
{"名前":"府中砂場","lat":35.668067,"long":139.4772390},
{"名前":"府中競馬正門前","lat":35.668550,"long":139.4849306},
{"名前":"府中西高校前","lat":35.672004,"long":139.4487733},
{"名前":"府中西高校前","lat":35.672022,"long":139.4488941},
{"名前":"府中診療所","lat":35.674004,"long":139.4802250},
{"名前":"府中警察署前","lat":35.673268,"long":139.4818493},
{"名前":"府中警察署多摩川競艇場前交番","lat":35.656557,"long":139.4999860},
{"名前":"府中警察署大国魂交番","lat":35.669881,"long":139.4795967},
{"名前":"府中警察署東","lat":35.672950,"long":139.4830893},
{"名前":"府中警察署東","lat":35.672987,"long":139.4831420},
{"名前":"府中駅北口","lat":35.673255,"long":139.4804749},
{"名前":"府中駅北口","lat":35.673260,"long":139.4806159},
{"名前":"座間","lat":35.480701,"long":139.3999431},
{"名前":"座間中学校前","lat":35.493070,"long":139.4062194},
{"名前":"座間市","lat":35.488650,"long":139.4076305},
{"名前":"座間市","lat":35.499205,"long":139.4204530},
{"名前":"座間市役所","lat":35.488135,"long":139.4071223},
{"名前":"座間市役所入口","lat":35.497717,"long":139.4058333},
{"名前":"座間市役所北","lat":35.491190,"long":139.4064986},
{"名前":"座間神社入口","lat":35.491610,"long":139.3933727},
{"名前":"座間警察前","lat":35.481398,"long":139.3927925},
{"名前":"座間警察北側","lat":35.482347,"long":139.3943348},
{"名前":"座間郵便局前","lat":35.509921,"long":139.4162886},
{"名前":"座間駅前","lat":35.480215,"long":139.3992461},
{"名前":"庵狐","lat":35.656130,"long":139.6939121},
{"名前":"康楽","lat":35.665981,"long":139.6398796},
{"名前":"廃墟パチンコ","lat":35.866399,"long":140.1533845},
{"名前":"廣徳寺","lat":35.700188,"long":139.6026640},
{"名前":"廣瀬無線電機株式会社","lat":35.699102,"long":139.7707888},
{"名前":"延命地蔵尊","lat":35.281638,"long":139.6638183},
{"名前":"延命寺前","lat":35.562233,"long":139.6949167},
{"名前":"延徳寺","lat":35.550656,"long":139.7253267},
{"名前":"延重寺","lat":35.663785,"long":139.6521181},
{"名前":"建物","lat":35.802554,"long":139.4391044},
{"名前":"廿里町","lat":35.643992,"long":139.2806764},
{"名前":"弁天前","lat":35.986212,"long":140.1224488},
{"名前":"弁天橋","lat":35.495734,"long":139.6894990},
{"名前":"弁天橋","lat":35.546913,"long":139.7517437},
{"名前":"弁天池前","lat":35.588016,"long":139.7192500},
{"名前":"弁天窟","lat":35.312927,"long":139.5336247},
{"名前":"弁天通三丁目","lat":35.448118,"long":139.6376326},
{"名前":"弁天門","lat":35.712523,"long":139.7723335},
{"名前":"弓射山","lat":35.426441,"long":138.6808061},
{"名前":"弘明寺","lat":35.422938,"long":139.6019355},
{"名前":"弘明寺","lat":35.423257,"long":139.6020770},
{"名前":"弘明寺","lat":35.424366,"long":139.5967985},
{"名前":"弘法の松","lat":35.601655,"long":139.5166156},
{"名前":"弥生保育園","lat":35.753116,"long":139.6943810},
{"名前":"弥生児童館","lat":35.752033,"long":139.6948250},
{"名前":"弥生台","lat":35.429897,"long":139.5063488},
{"名前":"弥生台グループホーム","lat":35.425836,"long":139.5031098},
{"名前":"弥生峠","lat":35.571578,"long":138.9454982},
{"名前":"弥生町三丁目","lat":35.686998,"long":139.6759748},
{"名前":"弥生町二丁目","lat":35.691461,"long":139.6744212},
{"名前":"弥生町六丁目","lat":35.684482,"long":139.6614934},
{"名前":"弦巻一丁目","lat":35.639953,"long":139.6510066},
{"名前":"弦巻五丁目","lat":35.636402,"long":139.6364082},
{"名前":"彦川戸香取神社","lat":35.848307,"long":139.8495306},
{"名前":"彦鮨","lat":35.721531,"long":139.9821469},
{"名前":"彩々楽","lat":35.982126,"long":139.6523502},
{"名前":"彩呼亭","lat":35.504633,"long":138.6920806},
{"名前":"影取町","lat":35.368829,"long":139.5001132},
{"名前":"影取町","lat":35.368851,"long":139.5000443},
{"名前":"影森","lat":35.972180,"long":139.0682870},
{"名前":"後楽園","lat":35.707318,"long":139.7512526},
{"名前":"後楽園","lat":35.707339,"long":139.7512504},
{"名前":"後楽園","lat":35.707350,"long":139.7512481},
{"名前":"後楽園","lat":35.708211,"long":139.7517609},
{"名前":"後楽園","lat":35.708212,"long":139.7518448},
{"名前":"後楽園","lat":35.708263,"long":139.7517990},
{"名前":"後楽園","lat":35.795339,"long":139.5990522},
{"名前":"後楽園自転車駐輪場","lat":35.707977,"long":139.7515350},
{"名前":"後沢乗越","lat":35.430795,"long":139.1436483},
{"名前":"後藤会計事務所","lat":35.634169,"long":139.5785120},
{"名前":"御前山","lat":35.770129,"long":139.0805713},
{"名前":"御前田","lat":35.527587,"long":139.4976562},
{"名前":"御前田","lat":35.527666,"long":139.4976160},
{"名前":"御園二丁目","lat":35.531400,"long":139.4231334},
{"名前":"御堂前","lat":35.758550,"long":140.0461801},
{"名前":"御堂前","lat":35.758644,"long":140.0461777},
{"名前":"御塔坂","lat":35.663234,"long":139.5430135},
{"名前":"御塔坂橋南","lat":35.664727,"long":139.5429142},
{"名前":"御塔坂橋南","lat":35.664839,"long":139.5428328},
{"名前":"御塔坂橋南","lat":35.664849,"long":139.5429598},
{"名前":"御塔坂橋南","lat":35.665762,"long":139.5435091},
{"名前":"御塔坂橋南","lat":35.665804,"long":139.5434244},
{"名前":"御岳","lat":35.791454,"long":139.1739383},
{"名前":"御岳山","lat":35.782813,"long":139.1494853},
{"名前":"御岳山","lat":35.783351,"long":139.1497773},
{"名前":"御岳山","lat":35.789689,"long":139.1536060},
{"名前":"御岳本町","lat":35.805464,"long":139.1785940},
{"名前":"御岳橋","lat":35.799903,"long":139.1828821},
{"名前":"御岳渓谷","lat":35.800855,"long":139.1847835},
{"名前":"御岳神社","lat":35.918029,"long":139.5115856},
{"名前":"御岳苑地","lat":35.799207,"long":139.1780753},
{"名前":"御岳郵便局","lat":35.800771,"long":139.1778730},
{"名前":"御岳駅前","lat":35.801295,"long":139.1831056},
{"名前":"御嶽","lat":35.801453,"long":139.1829937},
{"名前":"御嶽","lat":35.801508,"long":139.1829239},
{"名前":"御嶽の神代欅","lat":35.784022,"long":139.1519445},
{"名前":"御嶽山","lat":35.585249,"long":139.6824556},
{"名前":"御嶽山皮膚科","lat":35.585284,"long":139.6826750},
{"名前":"御嶽山神社","lat":35.586337,"long":139.6813136},
{"名前":"御嶽山神社","lat":35.921198,"long":139.4392546},
{"名前":"御嶽神社入口","lat":35.787632,"long":139.2990037},
{"名前":"御嶽神社前","lat":35.789728,"long":139.2988749},
{"名前":"御嶽駅前","lat":35.801311,"long":139.1836092},
{"名前":"御庭","lat":35.388428,"long":138.7056480},
{"名前":"御徒町","lat":35.706937,"long":139.7747651},
{"名前":"御徒町","lat":35.706950,"long":139.7746504},
{"名前":"御徒町","lat":35.706953,"long":139.7746303},
{"名前":"御徒町","lat":35.706955,"long":139.7746097},
{"名前":"御徒町","lat":35.706966,"long":139.7745046},
{"名前":"御成町","lat":35.318471,"long":139.5484840},
{"名前":"御成門","lat":35.660782,"long":139.7513970},
{"名前":"御成門","lat":35.660801,"long":139.7513591},
{"名前":"御成門","lat":35.660813,"long":139.7513312},
{"名前":"御成門","lat":35.661160,"long":139.7506318},
{"名前":"御成門","lat":35.661342,"long":139.7506273},
{"名前":"御所山","lat":35.455148,"long":139.6190348},
{"名前":"御所山","lat":35.455180,"long":139.6191226},
{"名前":"御来光山荘","lat":35.344714,"long":138.7368842},
{"名前":"御林稲荷神社","lat":35.725167,"long":139.7577527},
{"名前":"御殿場","lat":35.299985,"long":138.9341364},
{"名前":"御殿場IC","lat":35.294852,"long":138.9462433},
{"名前":"御殿場IC","lat":35.295518,"long":138.9457381},
{"名前":"御殿場JCT","lat":35.270335,"long":138.9159537},
{"名前":"御殿場スポーツカーガーデン","lat":35.287010,"long":138.9526290},
{"名前":"御殿場市","lat":35.301048,"long":138.8775730},
{"名前":"御殿場市・小山町消防本部","lat":35.303960,"long":138.9410740},
{"名前":"御殿場警察署東田中駐在所","lat":35.288962,"long":138.9492680},
{"名前":"御殿山","lat":35.623045,"long":139.7348686},
{"名前":"御殿山","lat":35.623195,"long":139.7348701},
{"名前":"御殿山","lat":35.702393,"long":139.5754350},
{"名前":"御殿峠","lat":35.621255,"long":139.3410427},
{"名前":"御殿峠南","lat":35.619802,"long":139.3409157},
{"名前":"御殿峠第二","lat":35.625082,"long":139.3384836},
{"名前":"御滝不動","lat":35.739467,"long":140.0205157},
{"名前":"御花畑","lat":35.992371,"long":139.0837383},
{"名前":"御茶ノ水","lat":35.699593,"long":139.7649185},
{"名前":"御茶ノ水","lat":35.700544,"long":139.7640222},
{"名前":"徳丸","lat":35.775789,"long":139.6598681},
{"名前":"徳丸4丁目","lat":35.773110,"long":139.6509725},
{"名前":"徳丸4丁目","lat":35.773113,"long":139.6510342},
{"名前":"徳丸ヶ原公園前","lat":35.790515,"long":139.6605292},
{"名前":"徳丸一丁目","lat":35.775949,"long":139.6644835},
{"名前":"徳丸七丁目","lat":35.779858,"long":139.6604551},
{"名前":"徳丸七丁目","lat":35.780385,"long":139.6642556},
{"名前":"徳丸七丁目","lat":35.780413,"long":139.6631559},
{"名前":"徳丸三丁目","lat":35.770070,"long":139.6564548},
{"名前":"徳丸五丁目","lat":35.776848,"long":139.6547914},
{"名前":"徳丸五丁目","lat":35.777140,"long":139.6546532},
{"名前":"徳丸六丁目","lat":35.778105,"long":139.6648146},
{"名前":"徳丸六丁目","lat":35.778815,"long":139.6650762},
{"名前":"徳丸六丁目中央","lat":35.778217,"long":139.6622185},
{"名前":"徳丸六丁目中央","lat":35.778288,"long":139.6622142},
{"名前":"徳丸坂下","lat":35.770473,"long":139.6630002},
{"名前":"徳丸坂下","lat":35.770503,"long":139.6628876},
{"名前":"徳丸本町公園入口","lat":35.771408,"long":139.6548651},
{"名前":"徳丸本町公園入口","lat":35.771532,"long":139.6549902},
{"名前":"徳丸橋","lat":35.794282,"long":139.6640141},
{"名前":"徳丸橋","lat":35.794616,"long":139.6639156},
{"名前":"徳丸町","lat":35.774928,"long":139.6642285},
{"名前":"徳丸町","lat":35.775063,"long":139.6641523},
{"名前":"徳丸町","lat":35.775883,"long":139.6639458},
{"名前":"徳丸町","lat":35.775924,"long":139.6635915},
{"名前":"徳丸西","lat":35.780148,"long":139.6547155},
{"名前":"徳丸西","lat":35.780471,"long":139.6547071},
{"名前":"徳和入口","lat":35.777509,"long":138.7387304},
{"名前":"徳富蘇峰館","lat":35.404924,"long":138.8702077},
{"名前":"徳寿院","lat":35.280329,"long":139.6685267},
{"名前":"徳念寺","lat":35.741372,"long":139.8500601},
{"名前":"徳持小学校","lat":35.569281,"long":139.7039381},
{"名前":"徳持小学校","lat":35.569888,"long":139.7039382},
{"名前":"徳樹庵","lat":35.838822,"long":139.5317953},
{"名前":"心バ","lat":35.709783,"long":139.7135900},
{"名前":"心和","lat":35.698200,"long":139.9827200},
{"名前":"心法寺","lat":35.685788,"long":139.7331755},
{"名前":"忍野村","lat":35.467087,"long":138.8625380},
{"名前":"志久","lat":35.991434,"long":139.6221007},
{"名前":"志木","lat":35.822356,"long":139.5752607},
{"名前":"志木市","lat":35.836519,"long":139.5800351},
{"名前":"志木駅南口","lat":35.821692,"long":139.5740529},
{"名前":"志村","lat":35.775257,"long":139.6908861},
{"名前":"志村クリニック","lat":35.529101,"long":139.3762094},
{"名前":"志村一里塚","lat":35.773999,"long":139.6973717},
{"名前":"志村一里塚","lat":35.774032,"long":139.6975995},
{"名前":"志村一里塚","lat":35.775244,"long":139.6959223},
{"名前":"志村一里塚","lat":35.775296,"long":139.6959857},
{"名前":"志村三丁目","lat":35.777448,"long":139.6860181},
{"名前":"志村三丁目駅","lat":35.778531,"long":139.6861719},
{"名前":"志村三丁目駅","lat":35.778839,"long":139.6857260},
{"名前":"志村三丁目駅","lat":35.778863,"long":139.6864887},
{"名前":"志村三丁目駅","lat":35.779119,"long":139.6859532},
{"名前":"志村三丁目駅","lat":35.779161,"long":139.6859305},
{"名前":"志村三丁目駅前","lat":35.777556,"long":139.6867138},
{"名前":"志村二丁目","lat":35.776187,"long":139.6906212},
{"名前":"志村健康福祉センター入口","lat":35.780212,"long":139.6769552},
{"名前":"志村健康福祉センター入口","lat":35.780326,"long":139.6777585},
{"名前":"志村商店","lat":35.322424,"long":139.6114004},
{"名前":"志村商店","lat":35.710865,"long":139.7745979},
{"名前":"志村四中","lat":35.778146,"long":139.6830646},
{"名前":"志村四中","lat":35.778218,"long":139.6840101},
{"名前":"志村坂上","lat":35.775603,"long":139.6956311},
{"名前":"志村坂上","lat":35.776216,"long":139.6942715},
{"名前":"志村坂上","lat":35.776276,"long":139.6940066},
{"名前":"志村坂上","lat":35.776297,"long":139.6947719},
{"名前":"志村坂上","lat":35.776311,"long":139.6948824},
{"名前":"志村坂上","lat":35.776540,"long":139.6947383},
{"名前":"志村坂上","lat":35.776816,"long":139.6942486},
{"名前":"志村坂下","lat":35.780336,"long":139.6932903},
{"名前":"志村坂下","lat":35.780463,"long":139.6924574},
{"名前":"志村坂下","lat":35.781105,"long":139.6900588},
{"名前":"志村坂下","lat":35.781182,"long":139.6897270},
{"名前":"志村坂下","lat":35.784615,"long":139.6864740},
{"名前":"志村坂下","lat":35.784676,"long":139.6865847},
{"名前":"志村坂下","lat":35.784714,"long":139.6863891},
{"名前":"志村坂下一丁目","lat":35.780454,"long":139.6852212},
{"名前":"志村橋","lat":35.790305,"long":139.6851919},
{"名前":"志村橋","lat":35.790578,"long":139.6850421},
{"名前":"志村消防署","lat":35.777196,"long":139.6786590},
{"名前":"志村警察署前","lat":35.773041,"long":139.6984252},
{"名前":"志村警察署前","lat":35.773091,"long":139.6985252},
{"名前":"志波田","lat":35.613064,"long":139.6841218},
{"名前":"志津","lat":35.717446,"long":140.1449603},
{"名前":"志茂","lat":35.736579,"long":139.3293138},
{"名前":"志茂","lat":35.777874,"long":139.7325731},
{"名前":"志茂","lat":35.777930,"long":139.7325734},
{"名前":"忘路庵カフェ","lat":35.924022,"long":139.2462059},
{"名前":"忠孝","lat":35.278812,"long":139.6720706},
{"名前":"忠生公園入口","lat":35.572577,"long":139.4203628},
{"名前":"忠生四丁目","lat":35.579536,"long":139.4127799},
{"名前":"忠生四丁目","lat":35.579633,"long":139.4128033},
{"名前":"快活Cafe","lat":35.657083,"long":139.3379470},
{"名前":"恋ヶ窪","lat":35.711286,"long":139.4640232},
{"名前":"恩名仲町","lat":35.435768,"long":139.3520001},
{"名前":"恩田","lat":35.545617,"long":139.4923253},
{"名前":"恵明寺","lat":35.764856,"long":139.8502230},
{"名前":"恵比寿","lat":35.646295,"long":139.7143850},
{"名前":"恵比寿","lat":35.646390,"long":139.7100673},
{"名前":"恵比寿","lat":35.646430,"long":139.7101921},
{"名前":"恵比寿","lat":35.646437,"long":139.7102101},
{"名前":"恵比寿","lat":35.646445,"long":139.7102251},
{"名前":"恵比寿","lat":35.646485,"long":139.7103303},
{"名前":"恵比寿","lat":35.646972,"long":139.7086709},
{"名前":"恵比寿","lat":35.647008,"long":139.7086685},
{"名前":"恵比寿18番","lat":35.645540,"long":139.7073277},
{"名前":"恵比寿一丁目","lat":35.646144,"long":139.7130945},
{"名前":"恵比寿一丁目","lat":35.646418,"long":139.7119332},
{"名前":"恵比寿一丁目","lat":35.648264,"long":139.7100572},
{"名前":"恵比寿三丁目","lat":35.644437,"long":139.7218155},
{"名前":"恵比寿三丁目","lat":35.644545,"long":139.7216137},
{"名前":"恵比寿三丁目","lat":35.644701,"long":139.7223887},
{"名前":"恵比寿三丁目","lat":35.644786,"long":139.7218796},
{"名前":"恵比寿三丁目","lat":35.644808,"long":139.7217853},
{"名前":"恵比寿三丁目","lat":35.644944,"long":139.7212445},
{"名前":"恵比寿二丁目","lat":35.645081,"long":139.7196336},
{"名前":"恵比寿二丁目","lat":35.645287,"long":139.7189000},
{"名前":"恵比寿公園前","lat":35.647386,"long":139.7071663},
{"名前":"恵比寿南","lat":35.646197,"long":139.7074963},
{"名前":"恵比寿南","lat":35.646266,"long":139.7074784},
{"名前":"恵比寿南一公園前","lat":35.642672,"long":139.7114679},
{"名前":"恵比寿南三丁目","lat":35.645569,"long":139.7071518},
{"名前":"恵比寿南二丁目","lat":35.645786,"long":139.7077926},
{"名前":"恵比寿四丁目","lat":35.645511,"long":139.7167402},
{"名前":"恵比寿四丁目","lat":35.645693,"long":139.7161728},
{"名前":"恵比寿四丁目","lat":35.645865,"long":139.7146556},
{"名前":"恵比寿屋","lat":35.727183,"long":139.2465913},
{"名前":"恵比寿横丁肉寿司","lat":35.648144,"long":139.7106592},
{"名前":"恵比寿郵便局","lat":35.645602,"long":139.7164935},
{"名前":"恵比寿駅前","lat":35.646929,"long":139.7094390},
{"名前":"恵比寿駅前","lat":35.647640,"long":139.7093501},
{"名前":"恵比寿駅前","lat":35.647707,"long":139.7092577},
{"名前":"恵比寿駅前","lat":35.647801,"long":139.7104262},
{"名前":"恵比寿駅前","lat":35.648347,"long":139.7104425},
{"名前":"恵比寿駅東口","lat":35.646208,"long":139.7122513},
{"名前":"恵泉女学園大学前","lat":35.610674,"long":139.4380018},
{"名前":"恵泉女学園大学前","lat":35.610916,"long":139.4379636},
{"名前":"悠友亭","lat":35.401705,"long":140.1376700},
{"名前":"悠遊","lat":35.660941,"long":139.7020983},
{"名前":"情報通信政策研究所","lat":35.699305,"long":139.4698540},
{"名前":"惣岳山","lat":35.772018,"long":139.0753798},
{"名前":"愛世会愛誠病院","lat":35.753270,"long":139.7209348},
{"名前":"愛和会南千住病院","lat":35.733934,"long":139.7941805},
{"名前":"愛宕","lat":35.950501,"long":139.8645283},
{"名前":"愛宕","lat":35.950513,"long":139.8645604},
{"名前":"愛宕","lat":35.950535,"long":139.8645921},
{"名前":"愛宕一丁目","lat":35.665650,"long":139.7498965},
{"名前":"愛宕一丁目","lat":35.665677,"long":139.7498146},
{"名前":"愛宕大橋","lat":35.800888,"long":139.0901055},
{"名前":"愛宕神社","lat":35.804226,"long":139.0973059},
{"名前":"愛川町","lat":35.532347,"long":139.2977950},
{"名前":"愛川町諏訪老人いこいの家","lat":35.528806,"long":139.3421140},
{"名前":"愛慈会相和病院","lat":35.573498,"long":139.3263190},
{"名前":"愛甲石田","lat":35.417607,"long":139.3439430},
{"名前":"愛甲郡","lat":35.514187,"long":139.2568561},
{"名前":"愛育病院","lat":35.645942,"long":139.7525551},
{"名前":"愛育病院前","lat":35.653670,"long":139.7260629},
{"名前":"愛育病院前","lat":35.654119,"long":139.7265664},
{"名前":"慈光会八木病院","lat":35.767088,"long":139.7267660},
{"名前":"慈光会堀切中央病院","lat":35.754153,"long":139.8282657},
{"名前":"慈恵会医大前","lat":35.662823,"long":139.7495342},
{"名前":"慈生会病院","lat":35.727924,"long":139.6641900},
{"名前":"慈眼寺","lat":35.620479,"long":139.6261770},
{"名前":"慈眼寺","lat":35.747096,"long":139.7993660},
{"名前":"慈誠会前野病院","lat":35.768654,"long":139.6885674},
{"名前":"慈誠会成増病院","lat":35.782583,"long":139.6280240},
{"名前":"慈誠会若木原病院","lat":35.767596,"long":139.6708940},
{"名前":"慈雲堂内科病院","lat":35.721422,"long":139.5724760},
{"名前":"慰霊堂入口","lat":35.410582,"long":139.5960079},
{"名前":"慶国寺","lat":35.762499,"long":139.9257973},
{"名前":"慶大正門前","lat":35.647902,"long":139.7428206},
{"名前":"慶大正門前","lat":35.647986,"long":139.7428194},
{"名前":"慶弔用仕出し　花家","lat":35.703135,"long":139.9705700},
{"名前":"慶応義塾大前","lat":35.647833,"long":139.7415778},
{"名前":"慶応義塾大前","lat":35.648027,"long":139.7426994},
{"名前":"慶應義塾東門","lat":35.650099,"long":139.7447232},
{"名前":"應慶寺","lat":35.670443,"long":139.6859318},
{"名前":"成井田","lat":35.481532,"long":139.3315456},
{"名前":"成井田","lat":35.481626,"long":139.3315828},
{"名前":"成友会小森病院","lat":35.713463,"long":139.5572702},
{"名前":"成城ベーカリー","lat":35.640918,"long":139.5990319},
{"名前":"成城二丁目","lat":35.636630,"long":139.6000158},
{"名前":"成城五丁目","lat":35.643818,"long":139.5965991},
{"名前":"成城五丁目南","lat":35.641622,"long":139.5964362},
{"名前":"成城八丁目","lat":35.649535,"long":139.5921841},
{"名前":"成城六丁目","lat":35.641821,"long":139.5971801},
{"名前":"成城四丁目","lat":35.640881,"long":139.5935662},
{"名前":"成城堂書店","lat":35.642278,"long":139.6000349},
{"名前":"成城大学短期大学部","lat":35.642210,"long":139.6015040},
{"名前":"成城大学（文芸学部）","lat":35.642571,"long":139.6010870},
{"名前":"成城学園前","lat":35.639911,"long":139.5984996},
{"名前":"成城学園前駅入口","lat":35.642006,"long":139.5987397},
{"名前":"成城幼稚園","lat":35.644823,"long":139.6029520},
{"名前":"成城消防署","lat":35.635532,"long":139.6011323},
{"名前":"成城消防署","lat":35.635821,"long":139.6010335},
{"名前":"成城石井","lat":35.532119,"long":139.6975277},
{"名前":"成城石井","lat":35.543115,"long":139.5138775},
{"名前":"成城石井","lat":35.585297,"long":139.5815759},
{"名前":"成城石井","lat":35.607949,"long":139.6468748},
{"名前":"成城石井","lat":35.624929,"long":139.4240426},
{"名前":"成城石井","lat":35.626467,"long":139.6713695},
{"名前":"成城石井","lat":35.640657,"long":139.5991298},
{"名前":"成城石井","lat":35.659121,"long":139.7210706},
{"名前":"成城石井","lat":35.668195,"long":139.6084780},
{"名前":"成城石井","lat":35.669440,"long":139.7165636},
{"名前":"成城石井","lat":35.683827,"long":139.7386470},
{"名前":"成城石井","lat":35.698838,"long":139.7433761},
{"名前":"成城石井","lat":35.700184,"long":139.5067200},
{"名前":"成城石井","lat":35.749845,"long":139.8047840},
{"名前":"成城警察署","lat":35.652051,"long":139.6159218},
{"名前":"成城警察署北","lat":35.653269,"long":139.6159776},
{"名前":"成城警察署北","lat":35.653284,"long":139.6160861},
{"名前":"成城警察署南","lat":35.651827,"long":139.6163433},
{"名前":"成城警察署南","lat":35.651843,"long":139.6164575},
{"名前":"成増","lat":35.776155,"long":139.6321861},
{"名前":"成増","lat":35.776217,"long":139.6322473},
{"名前":"成増","lat":35.777612,"long":139.6329035},
{"名前":"成増","lat":35.781010,"long":139.6313130},
{"名前":"成増三丁目","lat":35.777381,"long":139.6340465},
{"名前":"成増二丁目","lat":35.773744,"long":139.6355954},
{"名前":"成増二丁目","lat":35.773803,"long":139.6356767},
{"名前":"成増南児童館","lat":35.774665,"long":139.6327849},
{"名前":"成増図書館","lat":35.778741,"long":139.6321972},
{"名前":"成増小学校入口","lat":35.775170,"long":139.6340947},
{"名前":"成増小学校入口","lat":35.775222,"long":139.6341548},
{"名前":"成増駅北口","lat":35.777840,"long":139.6331041},
{"名前":"成増駅北口","lat":35.777956,"long":139.6329918},
{"名前":"成増駅北口","lat":35.778061,"long":139.6328675},
{"名前":"成増駅南口","lat":35.776740,"long":139.6326001},
{"名前":"成増駅南口","lat":35.776813,"long":139.6327738},
{"名前":"成増駅南口","lat":35.777046,"long":139.6323548},
{"名前":"成増駅南口","lat":35.777106,"long":139.6328126},
{"名前":"成増駅南口","lat":35.777249,"long":139.6324457},
{"名前":"成子坂下","lat":35.695756,"long":139.6883824},
{"名前":"成子坂下","lat":35.695859,"long":139.6884285},
{"名前":"成就岳","lat":35.364269,"long":138.7335121},
{"名前":"成川薬局","lat":35.565512,"long":139.6513183},
{"名前":"成川薬局調剤店","lat":35.565281,"long":139.6530793},
{"名前":"成木","lat":35.826883,"long":139.2400131},
{"名前":"成木一丁目","lat":35.837739,"long":139.2810529},
{"名前":"成木二丁目西","lat":35.831911,"long":139.2691357},
{"名前":"成木五丁目","lat":35.823342,"long":139.2484724},
{"名前":"成木八丁目","lat":35.818467,"long":139.2447087},
{"名前":"成木小前","lat":35.828406,"long":139.2610679},
{"名前":"成木街道入口","lat":35.790962,"long":139.2708477},
{"名前":"成瀬","lat":35.535300,"long":139.4729739},
{"名前":"成瀬コミュニティセンター前","lat":35.543345,"long":139.4737655},
{"名前":"成瀬三ツ又","lat":35.549708,"long":139.4700992},
{"名前":"成瀬台三丁目","lat":35.554060,"long":139.4758009},
{"名前":"成瀬台二丁目","lat":35.554335,"long":139.4786509},
{"名前":"成瀬台四丁目西","lat":35.557191,"long":139.4753292},
{"名前":"成瀬小学校入口","lat":35.407476,"long":139.3263353},
{"名前":"成瀬小学校入口","lat":35.407556,"long":139.3263978},
{"名前":"成瀬駅ガード南","lat":35.534012,"long":139.4736774},
{"名前":"成田山川越別院","lat":35.919277,"long":139.4885326},
{"名前":"成田山神護寺","lat":35.783787,"long":139.6247481},
{"名前":"成田東五丁目","lat":35.701460,"long":139.6308106},
{"名前":"成田東四丁目","lat":35.698228,"long":139.6388928},
{"名前":"成田東四丁目","lat":35.698301,"long":139.6389235},
{"名前":"成田街道入口","lat":35.694795,"long":140.0138163},
{"名前":"成田西児童館前","lat":35.690955,"long":139.6308398},
{"名前":"成藏","lat":35.710844,"long":139.7038482},
{"名前":"成蹊大学","lat":35.711816,"long":139.5730897},
{"名前":"成蹊学園前","lat":35.709596,"long":139.5728030},
{"名前":"成蹊学園前","lat":35.709765,"long":139.5723447},
{"名前":"成蹊学園前","lat":35.709945,"long":139.5723198},
{"名前":"成蹊学園前","lat":35.709950,"long":139.5719861},
{"名前":"成蹊学園史料館","lat":35.710443,"long":139.5732115},
{"名前":"成蹊小学校","lat":35.712840,"long":139.5750030},
{"名前":"成蹊通り","lat":35.705665,"long":139.5680282},
{"名前":"成願寺","lat":35.694070,"long":139.6816205},
{"名前":"我孫子中学校","lat":35.865535,"long":140.0375732},
{"名前":"我孫子中学校","lat":35.865786,"long":140.0366272},
{"名前":"我孫子二輪","lat":35.883803,"long":140.0092966},
{"名前":"我孫子市","lat":35.863999,"long":140.0280653},
{"名前":"我孫子駅前郵便局","lat":35.874122,"long":140.0107930},
{"名前":"我武維揚(森林太郎贈)","lat":35.719839,"long":139.7605908},
{"名前":"戸吹清掃事業所","lat":35.701845,"long":139.2961771},
{"名前":"戸吹町","lat":35.707775,"long":139.2962098},
{"名前":"戸吹町西","lat":35.708948,"long":139.2927007},
{"名前":"戸塚","lat":35.400542,"long":139.5341158},
{"名前":"戸塚","lat":35.400548,"long":139.5342150},
{"名前":"戸塚","lat":35.400574,"long":139.5342597},
{"名前":"戸塚","lat":35.400582,"long":139.5342990},
{"名前":"戸塚","lat":35.400616,"long":139.5344609},
{"名前":"戸塚","lat":35.401118,"long":139.5350460},
{"名前":"戸塚区","lat":35.394180,"long":139.5255070},
{"名前":"戸塚安行","lat":35.858950,"long":139.7537843},
{"名前":"戸塚町","lat":35.389369,"long":139.5279447},
{"名前":"戸塚警察署","lat":35.390991,"long":139.5218253},
{"名前":"戸塚警察署","lat":35.391073,"long":139.5217797},
{"名前":"戸塚警察署前","lat":35.713586,"long":139.7109739},
{"名前":"戸塚警察署前","lat":35.713627,"long":139.7108938},
{"名前":"戸塚駅東口入口","lat":35.402483,"long":139.5353644},
{"名前":"戸塚駅西口","lat":35.401139,"long":139.5335019},
{"名前":"戸崎下","lat":35.755594,"long":139.9772741},
{"名前":"戸手アパート前","lat":35.543917,"long":139.6962659},
{"名前":"戸手アパート前","lat":35.544407,"long":139.6960655},
{"名前":"戸栗美術館","lat":35.661439,"long":139.6927998},
{"名前":"戸沢橋東","lat":35.405920,"long":139.3747549},
{"名前":"戸田","lat":35.404931,"long":139.3615011},
{"名前":"戸田","lat":35.404951,"long":139.3617551},
{"名前":"戸田","lat":35.817701,"long":139.6695544},
{"名前":"戸田スポーツセンター","lat":35.821313,"long":139.6653215},
{"名前":"戸田公園","lat":35.807908,"long":139.6781947},
{"名前":"戸田公園(西)","lat":35.805728,"long":139.6504569},
{"名前":"戸田公園駅前","lat":35.806981,"long":139.6776301},
{"名前":"戸田市","lat":35.817587,"long":139.6778944},
{"名前":"戸田西","lat":35.817058,"long":139.6344185},
{"名前":"戸越","lat":35.615062,"long":139.7166188},
{"名前":"戸越","lat":35.615189,"long":139.7164508},
{"名前":"戸越公園","lat":35.608913,"long":139.7181941},
{"名前":"戸越公園","lat":35.608920,"long":139.7182675},
{"名前":"戸越公園","lat":35.608942,"long":139.7182638},
{"名前":"戸越銀座","lat":35.615282,"long":139.7167560},
{"名前":"戸越銀座","lat":35.615309,"long":139.7166311},
{"名前":"戸越銀座","lat":35.616072,"long":139.7150199},
{"名前":"戸越駅　A1出口","lat":35.613953,"long":139.7163676},
{"名前":"戸部","lat":35.456767,"long":139.6195324},
{"名前":"所沢","lat":35.787141,"long":139.4733317},
{"名前":"所沢IC","lat":35.805286,"long":139.5333051},
{"名前":"所沢IC","lat":35.811470,"long":139.5283094},
{"名前":"所沢北高北","lat":35.813578,"long":139.4620050},
{"名前":"所沢市","lat":35.799427,"long":139.4687478},
{"名前":"所沢東住吉郵便局","lat":35.784468,"long":139.4721490},
{"名前":"所沢陸橋北","lat":35.790484,"long":139.4822265},
{"名前":"所沢駅東口郵便局","lat":35.786968,"long":139.4772320},
{"名前":"所耳鼻咽喉科","lat":35.321624,"long":139.6105997},
{"名前":"扇三丁目","lat":35.769349,"long":139.7707125},
{"名前":"扇三丁目","lat":35.769483,"long":139.7705159},
{"名前":"扇二丁目","lat":35.766556,"long":139.7708448},
{"名前":"扇二丁目","lat":35.766559,"long":139.7707009},
{"名前":"扇大橋","lat":35.761863,"long":139.7663145},
{"名前":"扇大橋","lat":35.761939,"long":139.7664092},
{"名前":"扇大橋","lat":35.763969,"long":139.7708262},
{"名前":"扇大橋","lat":35.763981,"long":139.7707800},
{"名前":"扇大橋","lat":35.763985,"long":139.7708714},
{"名前":"扇大橋駅前","lat":35.763887,"long":139.7707238},
{"名前":"扇山","lat":35.637328,"long":139.0136516},
{"名前":"扇橋一丁目","lat":35.682709,"long":139.8116163},
{"名前":"扇橋一丁目","lat":35.682827,"long":139.8109937},
{"名前":"扇橋三丁目","lat":35.682546,"long":139.8197190},
{"名前":"扇橋三丁目","lat":35.682907,"long":139.8193341},
{"名前":"扇橋二丁目","lat":35.682911,"long":139.8151740},
{"名前":"扇橋二丁目","lat":35.683084,"long":139.8156836},
{"名前":"扇町","lat":35.501669,"long":139.7224713},
{"名前":"扇町","lat":35.505848,"long":139.7249120},
{"名前":"扇町屋","lat":35.828179,"long":139.3805816},
{"名前":"扇町屋三丁目","lat":35.829225,"long":139.3827295},
{"名前":"扇町屋四丁目","lat":35.826598,"long":139.3837251},
{"名前":"扇町屋（南）","lat":35.825449,"long":139.3810131},
{"名前":"手児奈煎餅","lat":35.722558,"long":139.7819482},
{"名前":"手塚プロダクション","lat":35.709568,"long":139.6974063},
{"名前":"手塚プロダクション","lat":35.797724,"long":139.5585135},
{"名前":"手打蕎麦おかむら","lat":35.291210,"long":139.5912461},
{"名前":"打越","lat":35.567369,"long":139.5996071},
{"名前":"打越","lat":35.643271,"long":139.3535672},
{"名前":"打越","lat":35.643336,"long":139.3532671},
{"名前":"扶桑通り","lat":35.711034,"long":139.5683638},
{"名前":"折本町","lat":35.520611,"long":139.5889491},
{"名前":"折立","lat":35.807823,"long":140.0396628},
{"名前":"折立","lat":35.807844,"long":140.0394780},
{"名前":"抜弁天","lat":35.697668,"long":139.7135139},
{"名前":"抜弁天","lat":35.697705,"long":139.7130506},
{"名前":"抜弁天","lat":35.697751,"long":139.7131255},
{"名前":"抜弁天","lat":35.697854,"long":139.7128394},
{"名前":"押上","lat":35.708326,"long":139.8137488},
{"名前":"押上","lat":35.708942,"long":139.8123584},
{"名前":"押上","lat":35.709097,"long":139.8126873},
{"名前":"押上","lat":35.709107,"long":139.8128663},
{"名前":"押上二丁目","lat":35.713720,"long":139.8127645},
{"名前":"押堀西","lat":35.455160,"long":139.3943314},
{"名前":"担々麺香家","lat":35.662133,"long":139.6604640},
{"名前":"拝島","lat":35.721154,"long":139.3434102},
{"名前":"拝島","lat":35.721188,"long":139.3434813},
{"名前":"拝島","lat":35.721223,"long":139.3435672},
{"名前":"拝島","lat":35.721237,"long":139.3435971},
{"名前":"拝島","lat":35.721259,"long":139.3436353},
{"名前":"拝島","lat":35.721276,"long":139.3436779},
{"名前":"拝島","lat":35.721295,"long":139.3437204},
{"名前":"拝島","lat":35.721363,"long":139.3438487},
{"名前":"拝島","lat":35.721378,"long":139.3438857},
{"名前":"拝島","lat":35.721380,"long":139.3440218},
{"名前":"拝島","lat":35.721464,"long":139.3440826},
{"名前":"拝島一小北","lat":35.707760,"long":139.3458872},
{"名前":"拝島一小北","lat":35.707860,"long":139.3458662},
{"名前":"拝島三叉路","lat":35.710983,"long":139.3384459},
{"名前":"拝島三叉路","lat":35.711331,"long":139.3383151},
{"名前":"拝島大師前","lat":35.704610,"long":139.3460123},
{"名前":"拝島大師北","lat":35.706585,"long":139.3483061},
{"名前":"拝島大師北","lat":35.706639,"long":139.3484214},
{"名前":"拝島町","lat":35.707858,"long":139.3396641},
{"名前":"拝島町","lat":35.720960,"long":139.3637824},
{"名前":"拝島農協前","lat":35.708789,"long":139.3437731},
{"名前":"拝島農協前","lat":35.708854,"long":139.3438068},
{"名前":"拝島駐在所前","lat":35.705203,"long":139.3443390},
{"名前":"指扇","lat":35.917116,"long":139.5650228},
{"名前":"指田医院","lat":35.727865,"long":139.5390135},
{"名前":"摩利支天尊","lat":35.925194,"long":139.2459996},
{"名前":"摺差","lat":35.639576,"long":139.2513306},
{"名前":"摺差","lat":35.639643,"long":139.2513843},
{"名前":"摺鉢山","lat":35.713859,"long":139.7740034},
{"名前":"播磨坂桜並木","lat":35.716463,"long":139.7419568},
{"名前":"播磨坂桜並木","lat":35.716621,"long":139.7418680},
{"名前":"教育センター前","lat":35.708167,"long":139.7456898},
{"名前":"教育科学館","lat":35.763043,"long":139.6796739},
{"名前":"教育科学館","lat":35.763345,"long":139.6790875},
{"名前":"教育科学館","lat":35.763497,"long":139.6793387},
{"名前":"教育科学館前","lat":35.763221,"long":139.6793174},
{"名前":"教花園","lat":35.609837,"long":139.7116424},
{"名前":"敬老園ロイヤルヴィラ東京武蔵野","lat":35.711469,"long":139.5627027},
{"名前":"敬覚寺","lat":35.755396,"long":139.6080292},
{"名前":"数研学院","lat":35.799816,"long":139.9129979},
{"名前":"整備場","lat":35.555163,"long":139.7533778},
{"名前":"整備場","lat":35.555165,"long":139.7533345},
{"名前":"整備場","lat":35.555167,"long":139.7533539},
{"名前":"整骨院","lat":35.799452,"long":139.9111370},
{"名前":"整骨院","lat":35.799913,"long":139.9133364},
{"名前":"文京区","lat":35.718810,"long":139.7447320},
{"名前":"文京区役所","lat":35.707956,"long":139.7522660},
{"名前":"文化会館前","lat":35.435401,"long":139.3572335},
{"名前":"文化会館前","lat":35.435407,"long":139.3570900},
{"名前":"文化園花店","lat":35.705270,"long":139.5805591},
{"名前":"文化堂","lat":35.600115,"long":139.7217952},
{"名前":"文化堂","lat":35.606642,"long":139.7101416},
{"名前":"文化庁","lat":35.671159,"long":139.7492636},
{"名前":"文化財研究所","lat":35.719567,"long":139.7742920},
{"名前":"文大杉高前","lat":35.702771,"long":139.6282309},
{"名前":"文大杉高前","lat":35.702839,"long":139.6282945},
{"名前":"文山青果","lat":35.684366,"long":139.6283942},
{"名前":"文房堂","lat":35.695273,"long":139.7609316},
{"名前":"文教堂","lat":35.318192,"long":139.5509219},
{"名前":"文教堂","lat":35.325829,"long":139.4667875},
{"名前":"文教堂","lat":35.374400,"long":139.1853200},
{"名前":"文教堂","lat":35.598029,"long":139.6130117},
{"名前":"文教堂","lat":35.620791,"long":139.5697063},
{"名前":"文教堂","lat":35.655298,"long":139.7563746},
{"名前":"文教堂","lat":35.690620,"long":139.7359230},
{"名前":"文教堂","lat":35.764261,"long":139.7356007},
{"名前":"文教堂書店","lat":35.701696,"long":139.5453860},
{"名前":"文教堂書店","lat":35.839965,"long":139.7036667},
{"名前":"文明堂","lat":35.689571,"long":139.7123291},
{"名前":"文明堂","lat":35.777642,"long":139.6330123},
{"名前":"文殊院","lat":35.755948,"long":139.7096385},
{"名前":"文部科学省","lat":35.671585,"long":139.7487192},
{"名前":"文部科学省正面玄関","lat":35.671528,"long":139.7488814},
{"名前":"斎藤輪業","lat":35.708514,"long":139.9848800},
{"名前":"新一の橋","lat":35.632750,"long":139.5846480},
{"名前":"新七合目","lat":35.344766,"long":138.7369878},
{"名前":"新三河島","lat":35.737223,"long":139.7739554},
{"名前":"新三輪橋","lat":35.581206,"long":139.4995657},
{"名前":"新三郷","lat":35.858701,"long":139.8693171},
{"名前":"新中野","lat":35.697385,"long":139.6702143},
{"名前":"新中野","lat":35.697461,"long":139.6686350},
{"名前":"新中野","lat":35.697631,"long":139.6701012},
{"名前":"新中野駅前","lat":35.697413,"long":139.6693086},
{"名前":"新中野駅前","lat":35.697538,"long":139.6684917},
{"名前":"新丸子","lat":35.580303,"long":139.6638990},
{"名前":"新丸子","lat":35.580303,"long":139.6640018},
{"名前":"新丸子","lat":35.580640,"long":139.6621731},
{"名前":"新丸子","lat":35.580658,"long":139.6620696},
{"名前":"新丸子","lat":35.580669,"long":139.6619778},
{"名前":"新丸子","lat":35.580671,"long":139.6620323},
{"名前":"新丸子","lat":35.580698,"long":139.6618902},
{"名前":"新丸子東3丁目","lat":35.573192,"long":139.6611011},
{"名前":"新丸子東二丁目","lat":35.577222,"long":139.6623401},
{"名前":"新久","lat":35.823438,"long":139.3635457},
{"名前":"新久南","lat":35.817185,"long":139.3647151},
{"名前":"新井中野通り","lat":35.709937,"long":139.6655484},
{"名前":"新井中野通り","lat":35.710039,"long":139.6662176},
{"名前":"新井中野通り","lat":35.710528,"long":139.6652392},
{"名前":"新井中野通り","lat":35.710538,"long":139.6652439},
{"名前":"新井中野通り","lat":35.710726,"long":139.6651798},
{"名前":"新井中野通り","lat":35.710749,"long":139.6651887},
{"名前":"新井五差路","lat":35.714280,"long":139.6662416},
{"名前":"新井交差点南","lat":35.708880,"long":139.6650107},
{"名前":"新井商店","lat":35.816244,"long":139.7014272},
{"名前":"新井宿","lat":35.842978,"long":139.7378790},
{"名前":"新井薬師前","lat":35.715696,"long":139.6726599},
{"名前":"新京成くぬぎ山車両基地","lat":35.777114,"long":139.9808716},
{"名前":"新京飯店","lat":35.708690,"long":139.9802551},
{"名前":"新代田","lat":35.662651,"long":139.6610520},
{"名前":"新代田小林歯科","lat":35.661812,"long":139.6604078},
{"名前":"新代田駅","lat":35.662529,"long":139.6603763},
{"名前":"新代田駅","lat":35.662533,"long":139.6602597},
{"名前":"新代田駅前","lat":35.663784,"long":139.6604218},
{"名前":"新代田駅前郵便局","lat":35.662182,"long":139.6604511},
{"名前":"新作","lat":35.586081,"long":139.6191532},
{"名前":"新作","lat":35.586301,"long":139.6189164},
{"名前":"新作","lat":35.586696,"long":139.6187275},
{"名前":"新保土ヶ谷","lat":35.450550,"long":139.5706858},
{"名前":"新倉富士浅間神社","lat":35.500312,"long":138.8001336},
{"名前":"新八ツ山橋","lat":35.623904,"long":139.7379356},
{"名前":"新八柱","lat":35.791952,"long":139.9383670},
{"名前":"新六合目","lat":35.350958,"long":138.7551586},
{"名前":"新北側橋","lat":35.552225,"long":139.6050215},
{"名前":"新北側橋","lat":35.552231,"long":139.6051455},
{"名前":"新千葉","lat":35.612455,"long":140.1081809},
{"名前":"新吉原橋","lat":35.395229,"long":139.5859836},
{"名前":"新吉田南","lat":35.539276,"long":139.6127224},
{"名前":"新吉田南側第二","lat":35.538362,"long":139.6127852},
{"名前":"新吉田小学校南","lat":35.535578,"long":139.6165396},
{"名前":"新吉田小学校南","lat":35.535767,"long":139.6169727},
{"名前":"新吉田町","lat":35.541537,"long":139.6245233},
{"名前":"新吉田町","lat":35.541629,"long":139.6249942},
{"名前":"新四葉","lat":35.780353,"long":139.6497661},
{"名前":"新四葉","lat":35.780365,"long":139.6498259},
{"名前":"新国立劇場","lat":35.682531,"long":139.6858441},
{"名前":"新城駅前","lat":35.586807,"long":139.6299961},
{"名前":"新城駅南口","lat":35.586757,"long":139.6297384},
{"名前":"新城駅西側","lat":35.587886,"long":139.6286308},
{"名前":"新城駅西側","lat":35.587898,"long":139.6285814},
{"名前":"新城高校前","lat":35.580641,"long":139.6332603},
{"名前":"新塚越","lat":35.549404,"long":139.6769640},
{"名前":"新大久保駅前","lat":35.701499,"long":139.6999242},
{"名前":"新大久保駅前","lat":35.701559,"long":139.6996624},
{"名前":"新大塚","lat":35.725778,"long":139.7299170},
{"名前":"新大日","lat":35.451705,"long":139.1767305},
{"名前":"新大縄橋","lat":35.350254,"long":139.3313267},
{"名前":"新大縄橋際南","lat":35.350996,"long":139.3307828},
{"名前":"新奥多摩街道ガード下","lat":35.690250,"long":139.3993555},
{"名前":"新子安","lat":35.486818,"long":139.6541974},
{"名前":"新子安","lat":35.486875,"long":139.6541635},
{"名前":"新子安","lat":35.486914,"long":139.6541266},
{"名前":"新守谷駅前","lat":35.965975,"long":139.9846292},
{"名前":"新守谷駅前","lat":35.965981,"long":139.9847436},
{"名前":"新守谷駅前","lat":35.966059,"long":139.9846154},
{"名前":"新守谷駅前","lat":35.966064,"long":139.9847347},
{"名前":"新守谷駅南","lat":35.962996,"long":139.9853426},
{"名前":"新守谷駅南","lat":35.963031,"long":139.9854248},
{"名前":"新宿","lat":35.688195,"long":139.6990884},
{"名前":"新宿","lat":35.688215,"long":139.6991810},
{"名前":"新宿","lat":35.688363,"long":139.6990749},
{"名前":"新宿","lat":35.688594,"long":139.6991650},
{"名前":"新宿","lat":35.688710,"long":139.6991335},
{"名前":"新宿","lat":35.688858,"long":139.6999897},
{"名前":"新宿","lat":35.688965,"long":139.7001617},
{"名前":"新宿","lat":35.688981,"long":139.7002594},
{"名前":"新宿","lat":35.688990,"long":139.7003089},
{"名前":"新宿","lat":35.689007,"long":139.7004005},
{"名前":"新宿","lat":35.689013,"long":139.7004383},
{"名前":"新宿","lat":35.689036,"long":139.7005403},
{"名前":"新宿","lat":35.689044,"long":139.7005814},
{"名前":"新宿","lat":35.689060,"long":139.7007060},
{"名前":"新宿","lat":35.689070,"long":139.7007543},
{"名前":"新宿","lat":35.689083,"long":139.7007970},
{"名前":"新宿","lat":35.689110,"long":139.7008922},
{"名前":"新宿","lat":35.689118,"long":139.7010768},
{"名前":"新宿","lat":35.689120,"long":139.7009395},
{"名前":"新宿","lat":35.689134,"long":139.7010383},
{"名前":"新宿","lat":35.689145,"long":139.7011005},
{"名前":"新宿","lat":35.689172,"long":139.7012328},
{"名前":"新宿","lat":35.689174,"long":139.7012754},
{"名前":"新宿","lat":35.689200,"long":139.7014175},
{"名前":"新宿","lat":35.689930,"long":139.6997392},
{"名前":"新宿","lat":35.690151,"long":139.6997708},
{"名前":"新宿","lat":35.690293,"long":139.6996556},
{"名前":"新宿","lat":35.690529,"long":139.6990703},
{"名前":"新宿","lat":35.690538,"long":139.6991755},
{"名前":"新宿","lat":35.690547,"long":139.6992734},
{"名前":"新宿","lat":35.690582,"long":139.6991102},
{"名前":"新宿","lat":35.691241,"long":139.6996059},
{"名前":"新宿","lat":35.692153,"long":139.7003004},
{"名前":"新宿","lat":35.692168,"long":139.7005580},
{"名前":"新宿","lat":35.692177,"long":139.7002984},
{"名前":"新宿","lat":35.986662,"long":139.9806450},
{"名前":"新宿","lat":35.986757,"long":139.9807464},
{"名前":"新宿の目","lat":35.690954,"long":139.6987641},
{"名前":"新宿クラブアクシス","lat":35.695706,"long":139.7036220},
{"名前":"新宿コズミックセンター前","lat":35.704790,"long":139.7087090},
{"名前":"新宿コズミックセンター前","lat":35.704797,"long":139.7086158},
{"名前":"新宿サブナード","lat":35.693379,"long":139.7023156},
{"名前":"新宿ピカデリー","lat":35.692654,"long":139.7037539},
{"名前":"新宿プリンスホテル","lat":35.694746,"long":139.7001210},
{"名前":"新宿七丁目","lat":35.697889,"long":139.7075594},
{"名前":"新宿七丁目","lat":35.697903,"long":139.7074388},
{"名前":"新宿七丁目","lat":35.697982,"long":139.7075750},
{"名前":"新宿七丁目","lat":35.697999,"long":139.7074549},
{"名前":"新宿三丁目","lat":35.689829,"long":139.7034845},
{"名前":"新宿三丁目","lat":35.690564,"long":139.7063135},
{"名前":"新宿三丁目","lat":35.690601,"long":139.7062600},
{"名前":"新宿三丁目","lat":35.690688,"long":139.7062559},
{"名前":"新宿三丁目","lat":35.690779,"long":139.7045873},
{"名前":"新宿三丁目","lat":35.690786,"long":139.7048311},
{"名前":"新宿三丁目","lat":35.690806,"long":139.7047919},
{"名前":"新宿三丁目","lat":35.690817,"long":139.7047731},
{"名前":"新宿三丁目","lat":35.690899,"long":139.7043384},
{"名前":"新宿三丁目","lat":35.691091,"long":139.7047821},
{"名前":"新宿三丁目","lat":35.691144,"long":139.7038676},
{"名前":"新宿三丁目","lat":35.691164,"long":139.7040655},
{"名前":"新宿三丁目","lat":35.691196,"long":139.7040936},
{"名前":"新宿三丁目","lat":35.691223,"long":139.7041054},
{"名前":"新宿三丁目","lat":35.691314,"long":139.7042498},
{"名前":"新宿三丁目","lat":35.691493,"long":139.7030949},
{"名前":"新宿三丁目","lat":35.691725,"long":139.7041162},
{"名前":"新宿中央郵便局前","lat":35.690020,"long":139.6963862},
{"名前":"新宿二丁目","lat":35.689341,"long":139.7080439},
{"名前":"新宿二丁目","lat":35.689387,"long":139.7082888},
{"名前":"新宿五丁目","lat":35.692739,"long":139.7041379},
{"名前":"新宿五丁目","lat":35.692820,"long":139.7049279},
{"名前":"新宿五丁目東","lat":35.692027,"long":139.7070988},
{"名前":"新宿五丁目東","lat":35.692068,"long":139.7069392},
{"名前":"新宿五丁目東","lat":35.692154,"long":139.7070860},
{"名前":"新宿五丁目東","lat":35.692201,"long":139.7069246},
{"名前":"新宿出口","lat":35.681126,"long":139.6927666},
{"名前":"新宿出口","lat":35.682910,"long":139.6888831},
{"名前":"新宿区","lat":35.693763,"long":139.7036319},
{"名前":"新宿区役所内郵便局","lat":35.694095,"long":139.7035210},
{"名前":"新宿区立大久保図書館","lat":35.701624,"long":139.7067820},
{"名前":"新宿区立西早稲田授産場","lat":35.708066,"long":139.7140200},
{"名前":"新宿四丁目","lat":35.689706,"long":139.7041479},
{"名前":"新宿四丁目","lat":35.689708,"long":139.7040527},
{"名前":"新宿四丁目","lat":35.689835,"long":139.7041541},
{"名前":"新宿四丁目","lat":35.689845,"long":139.7042458},
{"名前":"新宿天神郵便局","lat":35.705345,"long":139.7305180},
{"名前":"新宿店ANNEX","lat":35.693967,"long":139.7018698},
{"名前":"新宿御苑前","lat":35.688574,"long":139.7107081},
{"名前":"新宿明治通郵便局","lat":35.695714,"long":139.7073637},
{"名前":"新宿消防署","lat":35.706884,"long":139.6946888},
{"名前":"新宿西口","lat":35.693132,"long":139.6991433},
{"名前":"新宿西口","lat":35.693136,"long":139.6991763},
{"名前":"新宿西口","lat":35.693139,"long":139.6992363},
{"名前":"新宿駅南口","lat":35.689054,"long":139.7004673},
{"名前":"新宿駅南口","lat":35.689118,"long":139.7003206},
{"名前":"新宿駅西口","lat":35.691580,"long":139.6984218},
{"名前":"新宿駅西口","lat":35.691591,"long":139.6986261},
{"名前":"新宿駅西口","lat":35.691679,"long":139.6984010},
{"名前":"新宿駅西口","lat":35.691691,"long":139.6986006},
{"名前":"新宿駅西口","lat":35.691701,"long":139.6988031},
{"名前":"新宿駅西口","lat":35.691775,"long":139.6983971},
{"名前":"新宿駅西口","lat":35.691785,"long":139.6985768},
{"名前":"新宿駅西口","lat":35.691794,"long":139.6987346},
{"名前":"新宿駅西口","lat":35.691802,"long":139.6989015},
{"名前":"新宿駅西口","lat":35.691870,"long":139.6984091},
{"名前":"新宿駅西口","lat":35.691884,"long":139.6986430},
{"名前":"新宿駅西口","lat":35.691898,"long":139.6988768},
{"名前":"新富","lat":35.874704,"long":140.0020554},
{"名前":"新小倉橋東側","lat":35.588687,"long":139.3045874},
{"名前":"新小倉橋東側","lat":35.588803,"long":139.3044924},
{"名前":"新小岩","lat":35.716932,"long":139.8580020},
{"名前":"新小平","lat":35.730954,"long":139.4706203},
{"名前":"新小平駅前","lat":35.730242,"long":139.4700063},
{"名前":"新小金井","lat":35.695978,"long":139.5267912},
{"名前":"新屋山神社奥宮","lat":35.399046,"long":138.7730222},
{"名前":"新岩蔵大橋","lat":35.823480,"long":139.2865737},
{"名前":"新川","lat":35.681551,"long":139.5686095},
{"名前":"新川一丁目","lat":35.678190,"long":139.7830138},
{"名前":"新川二丁目","lat":35.674970,"long":139.7816290},
{"名前":"新川二丁目","lat":35.675018,"long":139.7815486},
{"名前":"新川交番前","lat":35.681063,"long":139.5701247},
{"名前":"新川交番前","lat":35.681124,"long":139.5701501},
{"名前":"新川交番前","lat":35.681133,"long":139.5699836},
{"名前":"新川天神山前","lat":35.673541,"long":139.5760546},
{"名前":"新川宿","lat":35.681838,"long":139.5743326},
{"名前":"新川宿","lat":35.681927,"long":139.5742279},
{"名前":"新川崎","lat":35.551565,"long":139.6717221},
{"名前":"新川崎","lat":35.551591,"long":139.6717821},
{"名前":"新川崎","lat":35.551606,"long":139.6718541},
{"名前":"新川橋","lat":35.526655,"long":139.7024265},
{"名前":"新川橋","lat":35.526748,"long":139.7025398},
{"名前":"新川橋","lat":35.526760,"long":139.7022241},
{"名前":"新川橋","lat":35.526852,"long":139.7023434},
{"名前":"新川橋","lat":35.673151,"long":139.8719871},
{"名前":"新川橋","lat":35.673497,"long":139.8717533},
{"名前":"新川通","lat":35.526367,"long":139.7051989},
{"名前":"新常盤橋","lat":35.687547,"long":139.7700043},
{"名前":"新庚申塚","lat":35.741318,"long":139.7304650},
{"名前":"新庚申塚","lat":35.741489,"long":139.7306671},
{"名前":"新庚申塚","lat":35.741687,"long":139.7307750},
{"名前":"新座","lat":35.803737,"long":139.5562201},
{"名前":"新座市","lat":35.793442,"long":139.5652031},
{"名前":"新座消防署前","lat":35.783534,"long":139.5593521},
{"名前":"新御徒町","lat":35.707034,"long":139.7815675},
{"名前":"新御徒町","lat":35.707046,"long":139.7820434},
{"名前":"新御徒町","lat":35.707054,"long":139.7815918},
{"名前":"新御徒町","lat":35.707060,"long":139.7820462},
{"名前":"新御徒町","lat":35.707071,"long":139.7820476},
{"名前":"新御徒町","lat":35.707081,"long":139.7815751},
{"名前":"新御茶ノ水","lat":35.697179,"long":139.7655854},
{"名前":"新御茶ノ水","lat":35.697190,"long":139.7655587},
{"名前":"新御茶ノ水","lat":35.697218,"long":139.7656264},
{"名前":"新所沢","lat":35.806880,"long":139.4559710},
{"名前":"新整備場","lat":35.542820,"long":139.7870436},
{"名前":"新整備場","lat":35.542911,"long":139.7871474},
{"名前":"新整備場","lat":35.542923,"long":139.7870689},
{"名前":"新整橋西側","lat":35.516225,"long":139.5686911},
{"名前":"新日本橋駅","lat":35.688273,"long":139.7732330},
{"名前":"新日本橋駅","lat":35.688492,"long":139.7735294},
{"名前":"新日本橋駅","lat":35.688607,"long":139.7733323},
{"名前":"新日本橋駅","lat":35.688695,"long":139.7730478},
{"名前":"新日本橋駅","lat":35.688893,"long":139.7732435},
{"名前":"新日本橋駅前郵便局","lat":35.688792,"long":139.7740160},
{"名前":"新日鐵住金株式会社","lat":35.679130,"long":139.7632652},
{"名前":"新星堂","lat":35.490873,"long":139.4565438},
{"名前":"新星堂","lat":35.544614,"long":140.1727608},
{"名前":"新木","lat":35.862374,"long":140.1069714},
{"名前":"新木場","lat":35.645837,"long":139.8268066},
{"名前":"新木場","lat":35.645899,"long":139.8267938},
{"名前":"新木場","lat":35.645940,"long":139.8267824},
{"名前":"新木場","lat":35.646045,"long":139.8273781},
{"名前":"新木場","lat":35.646107,"long":139.8273713},
{"名前":"新木場","lat":35.646163,"long":139.8273636},
{"名前":"新木場","lat":35.646182,"long":139.8280428},
{"名前":"新木場埠頭公園前","lat":35.641591,"long":139.8238861},
{"名前":"新木場駅前","lat":35.645298,"long":139.8263683},
{"名前":"新木場駅前","lat":35.645597,"long":139.8254583},
{"名前":"新本牧公園前","lat":35.421533,"long":139.6600293},
{"名前":"新杉田","lat":35.385643,"long":139.6207280},
{"名前":"新杉田","lat":35.385725,"long":139.6208281},
{"名前":"新杉田","lat":35.386001,"long":139.6204103},
{"名前":"新杉田","lat":35.386554,"long":139.6195735},
{"名前":"新東京クリニック","lat":35.785430,"long":139.9015393},
{"名前":"新東京ダイヤモンドボウル","lat":35.724729,"long":139.3462422},
{"名前":"新松戸","lat":35.825504,"long":139.9211716},
{"名前":"新松田","lat":35.344704,"long":139.1396051},
{"名前":"新板橋","lat":35.748863,"long":139.7193084},
{"名前":"新柏","lat":35.838478,"long":139.9666008},
{"名前":"新柏","lat":35.838506,"long":139.9666532},
{"名前":"新柏","lat":35.838535,"long":139.9667005},
{"名前":"新柴又","lat":35.751094,"long":139.8794064},
{"名前":"新栄会滝野川病院","lat":35.750276,"long":139.7312110},
{"名前":"新栄高校北口","lat":35.540605,"long":139.5956178},
{"名前":"新栄高校北口","lat":35.540764,"long":139.5961784},
{"名前":"新根方橋","lat":35.590421,"long":139.7012628},
{"名前":"新桜ケ丘インター北側","lat":35.453622,"long":139.5624008},
{"名前":"新桜ケ丘インター南側","lat":35.451816,"long":139.5614562},
{"名前":"新桜ヶ丘","lat":35.452568,"long":139.5625875},
{"名前":"新桜台","lat":35.740858,"long":139.6684210},
{"名前":"新検見川","lat":35.651782,"long":140.0730763},
{"名前":"新横浜","lat":35.506724,"long":139.6168269},
{"名前":"新横浜","lat":35.506725,"long":139.6172572},
{"名前":"新横浜","lat":35.506734,"long":139.6168133},
{"名前":"新横浜","lat":35.506748,"long":139.6167885},
{"名前":"新横浜","lat":35.506851,"long":139.6172554},
{"名前":"新横浜","lat":35.508366,"long":139.6167603},
{"名前":"新横浜","lat":35.508795,"long":139.6175340},
{"名前":"新横浜ラーメン博物館","lat":35.509849,"long":139.6145269},
{"名前":"新横浜二丁目","lat":35.509602,"long":139.6165104},
{"名前":"新横浜二丁目","lat":35.509687,"long":139.6166198},
{"名前":"新横浜二丁目北側","lat":35.510156,"long":139.6158717},
{"名前":"新横浜二丁目北側","lat":35.510257,"long":139.6159903},
{"名前":"新横浜二丁目南側","lat":35.508561,"long":139.6151507},
{"名前":"新横浜公園","lat":35.511820,"long":139.6053957},
{"名前":"新横浜公園","lat":35.511937,"long":139.6054741},
{"名前":"新横浜国際ホテル","lat":35.510008,"long":139.6166965},
{"名前":"新横浜歩道橋","lat":35.510500,"long":139.6195753},
{"名前":"新横浜歩道橋","lat":35.510618,"long":139.6193680},
{"名前":"新横浜歩道橋","lat":35.510670,"long":139.6194396},
{"名前":"新横浜駅入口","lat":35.508913,"long":139.6174148},
{"名前":"新横浜駅入口","lat":35.508947,"long":139.6172138},
{"名前":"新横浜駅入口","lat":35.509026,"long":139.6173199},
{"名前":"新横浜駅前","lat":35.507864,"long":139.6160535},
{"名前":"新横浜駅前","lat":35.507916,"long":139.6159248},
{"名前":"新横浜駅前公園入口","lat":35.509113,"long":139.6145176},
{"名前":"新橋","lat":35.384442,"long":139.5795739},
{"名前":"新橋","lat":35.434151,"long":139.3829992},
{"名前":"新橋","lat":35.434180,"long":139.3830719},
{"名前":"新橋","lat":35.574053,"long":139.5498387},
{"名前":"新橋","lat":35.574153,"long":139.5500059},
{"名前":"新橋","lat":35.665176,"long":139.7558355},
{"名前":"新橋","lat":35.665309,"long":139.7597839},
{"名前":"新橋","lat":35.665348,"long":139.7598936},
{"名前":"新橋","lat":35.665382,"long":139.7593934},
{"名前":"新橋","lat":35.665389,"long":139.7594407},
{"名前":"新橋","lat":35.665413,"long":139.7593905},
{"名前":"新橋","lat":35.665420,"long":139.7598894},
{"名前":"新橋","lat":35.666144,"long":139.7579618},
{"名前":"新橋","lat":35.666160,"long":139.7581084},
{"名前":"新橋","lat":35.666161,"long":139.7581445},
{"名前":"新橋","lat":35.666177,"long":139.7583239},
{"名前":"新橋","lat":35.666180,"long":139.7582738},
{"名前":"新橋","lat":35.666192,"long":139.7583594},
{"名前":"新橋","lat":35.666200,"long":139.7584826},
{"名前":"新橋","lat":35.667249,"long":139.7588839},
{"名前":"新橋","lat":35.667266,"long":139.7588906},
{"名前":"新橋","lat":35.667283,"long":139.7589004},
{"名前":"新橋","lat":35.667569,"long":139.7589420},
{"名前":"新橋","lat":35.753636,"long":139.9765716},
{"名前":"新橋三丁目交番前","lat":35.666456,"long":139.7556805},
{"名前":"新橋二丁目","lat":35.668000,"long":139.7564378},
{"名前":"新橋二丁目","lat":35.668119,"long":139.7564988},
{"名前":"新橋五丁目","lat":35.662477,"long":139.7571733},
{"名前":"新橋五丁目","lat":35.662851,"long":139.7570914},
{"名前":"新橋六丁目","lat":35.660324,"long":139.7539147},
{"名前":"新橋六丁目","lat":35.660524,"long":139.7534399},
{"名前":"新橋六丁目","lat":35.660729,"long":139.7553205},
{"名前":"新橋六丁目","lat":35.660890,"long":139.7558434},
{"名前":"新橋駅","lat":35.666110,"long":139.7597208},
{"名前":"新江古田","lat":35.732615,"long":139.6703804},
{"名前":"新河岸","lat":35.796068,"long":139.6565058},
{"名前":"新河岸","lat":35.890984,"long":139.4972630},
{"名前":"新河岸都営住宅入口","lat":35.794759,"long":139.6660218},
{"名前":"新河岸都営住宅入口","lat":35.794774,"long":139.6651661},
{"名前":"新泉","lat":35.701844,"long":139.7387777},
{"名前":"新津田沼","lat":35.690233,"long":140.0237977},
{"名前":"新浅川橋南","lat":35.653223,"long":139.3538395},
{"名前":"新浅川橋南","lat":35.653274,"long":139.3537599},
{"名前":"新浦安","lat":35.649431,"long":139.9126201},
{"名前":"新浦安","lat":35.649524,"long":139.9125106},
{"名前":"新浦安","lat":35.649533,"long":139.9124954},
{"名前":"新浦安","lat":35.649541,"long":139.9124859},
{"名前":"新浦安","lat":35.649633,"long":139.9123796},
{"名前":"新浦安駅前郵便局","lat":35.648651,"long":139.9132611},
{"名前":"新狭山","lat":35.873988,"long":139.4335281},
{"名前":"新生銀行","lat":35.687521,"long":139.7738629},
{"名前":"新用田辻","lat":35.405171,"long":139.4135308},
{"名前":"新用田辻","lat":35.405246,"long":139.4135580},
{"名前":"新田","lat":35.619060,"long":139.1195456},
{"名前":"新田","lat":35.655753,"long":139.8686415},
{"名前":"新田","lat":35.655911,"long":139.8685471},
{"名前":"新田","lat":35.854592,"long":139.7950671},
{"名前":"新田コミュニティ図書館","lat":35.771420,"long":139.7380430},
{"名前":"新田一丁目","lat":35.773765,"long":139.7406622},
{"名前":"新田一丁目","lat":35.773826,"long":139.7405759},
{"名前":"新田三丁目","lat":35.770641,"long":139.7437141},
{"名前":"新田二丁目第二","lat":35.771262,"long":139.7407931},
{"名前":"新田住宅","lat":35.657279,"long":139.8610551},
{"名前":"新田住宅","lat":35.657356,"long":139.8611994},
{"名前":"新田公園前","lat":35.772080,"long":139.7429024},
{"名前":"新田地区センター入口","lat":35.532455,"long":139.6135599},
{"名前":"新田地区センター入口","lat":35.532619,"long":139.6133460},
{"名前":"新田地区センター入口","lat":35.533078,"long":139.6134088},
{"名前":"新田堀","lat":35.539659,"long":139.6435421},
{"名前":"新田堀","lat":35.539710,"long":139.6433045},
{"名前":"新田小学校入口","lat":35.531223,"long":139.6106047},
{"名前":"新田小学校東側第二","lat":35.532083,"long":139.6134676},
{"名前":"新田小東側","lat":35.534100,"long":139.6132735},
{"名前":"新田神社","lat":35.565806,"long":139.6913235},
{"名前":"新田稲荷神社","lat":35.565117,"long":139.4010958},
{"名前":"新田緑道","lat":35.529733,"long":139.6129833},
{"名前":"新田緑道","lat":35.530155,"long":139.6130942},
{"名前":"新田緑道","lat":35.530162,"long":139.6132117},
{"名前":"新田緑道","lat":35.530513,"long":139.6133082},
{"名前":"新田農協前","lat":35.539820,"long":139.6140581},
{"名前":"新田農協前","lat":35.539853,"long":139.6142775},
{"名前":"新田間橋","lat":35.464264,"long":139.6140271},
{"名前":"新田高前","lat":35.770879,"long":139.7426075},
{"名前":"新町","lat":35.376330,"long":139.2080445},
{"名前":"新町","lat":35.501033,"long":139.4409578},
{"名前":"新町","lat":35.662823,"long":139.3411892},
{"名前":"新町","lat":35.713207,"long":139.5362081},
{"名前":"新町","lat":35.787110,"long":139.3078161},
{"名前":"新町センター前","lat":35.786565,"long":139.3062554},
{"名前":"新町一丁目","lat":35.630307,"long":139.6538114},
{"名前":"新町一丁目","lat":35.630386,"long":139.6533964},
{"名前":"新町一丁目","lat":35.685015,"long":139.4888007},
{"名前":"新町一丁目","lat":35.714775,"long":139.5458335},
{"名前":"新町一丁目","lat":35.715415,"long":139.5465646},
{"名前":"新町一丁目東","lat":35.687866,"long":139.4902991},
{"名前":"新町一丁目東","lat":35.687941,"long":139.4903109},
{"名前":"新町中学校東側","lat":35.525566,"long":139.4391212},
{"名前":"新町二丁目","lat":35.684836,"long":139.4907465},
{"名前":"新町二丁目北","lat":35.688518,"long":139.4934269},
{"名前":"新町二丁目北","lat":35.688553,"long":139.4932798},
{"名前":"新町交番前","lat":35.787456,"long":139.3009752},
{"名前":"新町保育園","lat":35.626824,"long":139.6535280},
{"名前":"新町児童館","lat":35.713298,"long":139.5351425},
{"名前":"新町南","lat":35.780554,"long":139.3008101},
{"名前":"新町小入口","lat":35.685443,"long":139.4844836},
{"名前":"新町小北","lat":35.688248,"long":139.4857972},
{"名前":"新町小北","lat":35.688323,"long":139.4858308},
{"名前":"新町小学校北","lat":35.790258,"long":139.3070822},
{"名前":"新町小学校南","lat":35.786102,"long":139.3081959},
{"名前":"新町小学校南","lat":35.786131,"long":139.3081061},
{"名前":"新町市民センター南","lat":35.783368,"long":139.3050109},
{"名前":"新町桜株","lat":35.787273,"long":139.3031203},
{"名前":"新町桜株北","lat":35.789726,"long":139.3032333},
{"名前":"新町第二公園","lat":35.688005,"long":139.4887274},
{"名前":"新町第二公園","lat":35.688083,"long":139.4887404},
{"名前":"新町６丁目","lat":35.713429,"long":139.5323312},
{"名前":"新百合ヶ丘","lat":35.603864,"long":139.5076929},
{"名前":"新百合ヶ丘駅","lat":35.602821,"long":139.5076343},
{"名前":"新百合ヶ丘駅","lat":35.602835,"long":139.5077369},
{"名前":"新百合ヶ丘駅","lat":35.602947,"long":139.5074952},
{"名前":"新百合ヶ丘駅","lat":35.602957,"long":139.5075852},
{"名前":"新百合ヶ丘駅","lat":35.602967,"long":139.5081318},
{"名前":"新百合ヶ丘駅","lat":35.603027,"long":139.5080737},
{"名前":"新百合ヶ丘駅","lat":35.603087,"long":139.5082570},
{"名前":"新百合ヶ丘駅","lat":35.603102,"long":139.5075482},
{"名前":"新百合ヶ丘駅","lat":35.603119,"long":139.5081572},
{"名前":"新百合ヶ丘駅","lat":35.603148,"long":139.5074864},
{"名前":"新百合ヶ丘駅","lat":35.603265,"long":139.5076906},
{"名前":"新百合ヶ丘駅","lat":35.603296,"long":139.5076323},
{"名前":"新百合ヶ丘駅","lat":35.603297,"long":139.5081618},
{"名前":"新百合ヶ丘駅","lat":35.603303,"long":139.5082381},
{"名前":"新百合ヶ丘駅","lat":35.603355,"long":139.5077973},
{"名前":"新百合ヶ丘駅","lat":35.603380,"long":139.5080194},
{"名前":"新百合ヶ丘駅","lat":35.603419,"long":139.5077776},
{"名前":"新百合ヶ丘駅","lat":35.603432,"long":139.5080519},
{"名前":"新百合ヶ丘駅入口","lat":35.605364,"long":139.5062598},
{"名前":"新百合ヶ丘駅入口","lat":35.605580,"long":139.5060730},
{"名前":"新百合ヶ丘駅入口","lat":35.606267,"long":139.5059017},
{"名前":"新盛橋東","lat":35.821085,"long":139.6085018},
{"名前":"新盛橋東","lat":35.821157,"long":139.6086272},
{"名前":"新矢上橋","lat":35.558454,"long":139.6514918},
{"名前":"新石川三丁目","lat":35.572507,"long":139.5602716},
{"名前":"新石川三丁目","lat":35.572953,"long":139.5599432},
{"名前":"新石川二丁目","lat":35.568930,"long":139.5611795},
{"名前":"新石川二丁目","lat":35.569405,"long":139.5615978},
{"名前":"新石川公園北側","lat":35.575639,"long":139.5555601},
{"名前":"新砂一丁目","lat":35.658457,"long":139.8241398},
{"名前":"新砂一丁目","lat":35.658574,"long":139.8238515},
{"名前":"新砂二丁目","lat":35.665411,"long":139.8249724},
{"名前":"新砂二丁目","lat":35.665574,"long":139.8248678},
{"名前":"新磯小学校前","lat":35.502985,"long":139.3852366},
{"名前":"新磯橋入口","lat":35.516723,"long":139.3805703},
{"名前":"新磯野一丁目","lat":35.512084,"long":139.4060673},
{"名前":"新磯野南公園前","lat":35.511125,"long":139.4015298},
{"名前":"新磯野四丁目","lat":35.511210,"long":139.4042705},
{"名前":"新秋津","lat":35.778381,"long":139.4937517},
{"名前":"新綱島","lat":35.536298,"long":139.6362115},
{"名前":"新羽","lat":35.527506,"long":139.6120042},
{"名前":"新羽北側","lat":35.531093,"long":139.6133224},
{"名前":"新羽十字路","lat":35.527892,"long":139.6093099},
{"名前":"新羽営業所庚申堀","lat":35.530763,"long":139.6097082},
{"名前":"新羽営業所庚申堀","lat":35.530847,"long":139.6096044},
{"名前":"新羽村街道","lat":35.768554,"long":139.3389442},
{"名前":"新羽村街道","lat":35.768600,"long":139.3390372},
{"名前":"新羽橋東側","lat":35.528729,"long":139.6189225},
{"名前":"新羽橋際","lat":35.528500,"long":139.6164621},
{"名前":"新羽消防署前","lat":35.532035,"long":139.6096621},
{"名前":"新羽町","lat":35.527953,"long":139.6105441},
{"名前":"新羽町","lat":35.528050,"long":139.6102306},
{"名前":"新羽町","lat":35.528321,"long":139.6093052},
{"名前":"新羽町","lat":35.528662,"long":139.6091994},
{"名前":"新羽駅","lat":35.527549,"long":139.6117748},
{"名前":"新羽駅","lat":35.527687,"long":139.6117392},
{"名前":"新羽駅","lat":35.527828,"long":139.6117146},
{"名前":"新羽駅前","lat":35.528088,"long":139.6114604},
{"名前":"新羽駅前","lat":35.528096,"long":139.6115527},
{"名前":"新羽駅東側","lat":35.528206,"long":139.6127375},
{"名前":"新羽駅東側","lat":35.528216,"long":139.6128627},
{"名前":"新習志野","lat":35.667274,"long":140.0127995},
{"名前":"新習志野","lat":35.667303,"long":140.0128300},
{"名前":"新習志野","lat":35.667349,"long":140.0128786},
{"名前":"新習志野","lat":35.667382,"long":140.0129027},
{"名前":"新習志野","lat":35.667420,"long":140.0129396},
{"名前":"新船橋","lat":35.711422,"long":139.9797950},
{"名前":"新船橋","lat":35.711423,"long":139.9797754},
{"名前":"新船橋","lat":35.711425,"long":139.9797587},
{"名前":"新船橋駅入口","lat":35.710452,"long":139.9799133},
{"名前":"新芝浦","lat":35.492007,"long":139.7001084},
{"名前":"新菊名橋","lat":35.516208,"long":139.6288623},
{"名前":"新蒲田一丁目","lat":35.559956,"long":139.7088259},
{"名前":"新蒲田一丁目","lat":35.560036,"long":139.7088325},
{"名前":"新蒲田三丁目","lat":35.557042,"long":139.7055749},
{"名前":"新蒲田二丁目","lat":35.559885,"long":139.7052245},
{"名前":"新袋橋","lat":35.588233,"long":139.4505385},
{"名前":"新袋橋","lat":35.588253,"long":139.4506778},
{"名前":"新豊橋南","lat":35.764808,"long":139.7479089},
{"名前":"新豊洲","lat":35.648715,"long":139.7902186},
{"名前":"新豊洲","lat":35.648770,"long":139.7902120},
{"名前":"新豊洲","lat":35.648776,"long":139.7901659},
{"名前":"新豊田道","lat":35.330732,"long":139.3361980},
{"名前":"新豊田道","lat":35.330831,"long":139.3361605},
{"名前":"新越谷","lat":35.875339,"long":139.7898674},
{"名前":"新逗子","lat":35.294181,"long":139.5803247},
{"名前":"新道下","lat":35.447841,"long":139.4645279},
{"名前":"新道大橋","lat":35.454824,"long":139.4755063},
{"名前":"新道橋南","lat":35.627650,"long":139.4035239},
{"名前":"新道橋南","lat":35.627757,"long":139.4034944},
{"名前":"新郷","lat":35.824614,"long":139.7596764},
{"名前":"新都市医療研究会君津会玄々堂君津病院","lat":35.336209,"long":139.8964035},
{"名前":"新都市開発株式会社","lat":35.332665,"long":139.8956546},
{"名前":"新鎌ヶ谷","lat":35.779124,"long":139.9985576},
{"名前":"新鎌ヶ谷","lat":35.779486,"long":139.9983662},
{"名前":"新鎌ヶ谷","lat":35.780340,"long":139.9995204},
{"名前":"新鎌ヶ谷","lat":35.780341,"long":139.9995435},
{"名前":"新鎌ヶ谷","lat":35.780342,"long":139.9994964},
{"名前":"新鎌ヶ谷駅","lat":35.780482,"long":139.9997254},
{"名前":"新開橋","lat":35.611535,"long":139.5713184},
{"名前":"新風堂カフェ","lat":35.471857,"long":140.1088600},
{"名前":"新馬場","lat":35.616509,"long":139.7414662},
{"名前":"新高円寺","lat":35.697702,"long":139.6474350},
{"名前":"新高円寺","lat":35.697860,"long":139.6486922},
{"名前":"新高円寺通り","lat":35.700206,"long":139.6473925},
{"名前":"新高島","lat":35.461957,"long":139.6256710},
{"名前":"新高島平","lat":35.790214,"long":139.6544258},
{"名前":"新高根","lat":35.724938,"long":140.0274794},